address,zipCode,city,state,price,bed,bath,sqft,pricePerSf,lotArea,lotAreaType,zillowUrl,latitude,longitude,homeType,imageUrl
"3061 Mistletoe Gdns, Oakville, ON L6M 0Y8",L6M0Y8,Oakville,ON,899990.0,3.0,3.0,1408.0,639.2,86.76,sqft,https://zillow.com/homedetails/3061-Mistletoe-Gdns-Oakville-ON-L6M-0Y8/351803627_zpid/,43.47212,-79.740746,SINGLE_FAMILY,https://photos.zillowstatic.com/fp/3bed4eef9b5f5f0f9328bebfc0b36d3b-p_e.jpg
"310 Morden Rd, Oakville, ON L6K 2S7",L6K2S7,Oakville,ON,899000.0,5.0,2.0,,,5341.508,sqft,https://zillow.com/homedetails/310-Morden-Rd-Oakville-ON-L6K-2S7/2063721038_zpid/,43.43734,-79.68982,SINGLE_FAMILY,https://photos.zillowstatic.com/fp/f766c2351c29925b7b84ef02f3163326-p_e.jpg
"1342 Roylen Rd, Oakville, ON L6H 1V4",L6H1V4,Oakville,ON,999999.0,4.0,2.0,,,2728.699,sqft,https://zillow.com/homedetails/1342-Roylen-Rd-Oakville-ON-L6H-1V4/2073256882_zpid/,43.457787,-79.70906,SINGLE_FAMILY,https://photos.zillowstatic.com/fp/f021ca23f5ca0b080e688e408ec98389-p_e.jpg
"63 Washington Ave, Oakville, ON L6K 1W5",L6K1W5,Oakville,ON,999000.0,3.0,1.0,,,0.1,sqft,https://zillow.com/homedetails/63-Washington-Ave-Oakville-ON-L6K-1W5/447650756_zpid/,43.444782,-79.68179,SINGLE_FAMILY,https://photos.zillowstatic.com/fp/4142703bb52b0bf64a09e0388145d19f-p_e.jpg
"3072 Stornoway Cir, Oakville, ON L6M 5H7",L6M5H7,Oakville,ON,999900.0,3.0,3.0,1752.0,570.72,1496.0448,sqft,https://zillow.com/homedetails/3072-Stornoway-Cir-Oakville-ON-L6M-5H7/449842355_zpid/,43.432636,-79.77794,TOWNHOUSE,https://photos.zillowstatic.com/fp/ce2ef9e1de6f40f2418d02686601e528-p_e.jpg
"1250 Marlborough Ct #28, Oakville, ON L6H 2W7",L6H2W7,Oakville,ON,889000.0,3.0,3.0,,,,,https://zillow.com/homedetails/1250-Marlborough-Ct-28-Oakville-ON-L6H-2W7/2060972436_zpid/,43.467262,-79.694565,TOWNHOUSE,https://photos.zillowstatic.com/fp/3b3a0303b5cd3064165bd446f77999b6-p_e.jpg
"54 The Greenery, Oakville, ON L6H 6J7",L6H6J7,Oakville,ON,999000.0,3.0,4.0,,,1609.8896,sqft,https://zillow.com/homedetails/54-The-Greenery-Oakville-ON-L6H-6J7/2072248130_zpid/,43.472836,-79.721794,TOWNHOUSE,https://photos.zillowstatic.com/fp/89037a08301796687051ab6e7604b0db-p_e.jpg
"445 Samford Pl, Oakville, ON L6L 4E7",L6L4E7,Oakville,ON,1418000.0,4.0,2.0,,,7475.0,sqft,https://zillow.com/homedetails/445-Samford-Pl-Oakville-ON-L6L-4E7/449715722_zpid/,43.414917,-79.7103,SINGLE_FAMILY,https://photos.zillowstatic.com/fp/4f7f3c6cad20a72c864cc886b6f98617-p_e.jpg
"128 Garden Dr UNIT 420, Oakville, ON L6K 0H7",L6K0H7,Oakville,ON,798000.0,2.0,2.0,930.0,858.06,,,https://zillow.com/homedetails/128-Garden-Dr-UNIT-420-Oakville-ON-L6K-0H7/2069284288_zpid/,43.43652,-79.68028,CONDO,https://photos.zillowstatic.com/fp/339e3ba247cd2aed4e924ed82d0f48aa-p_e.jpg
"2579 6th Line E UNIT 3, Oakville, ON L6H 0H7",L6H0H7,Oakville,ON,649333.0,2.0,2.0,,,,,https://zillow.com/homedetails/2579-6th-Line-E-UNIT-3-Oakville-ON-L6H-0H7/449808787_zpid/,43.478745,-79.72814,TOWNHOUSE,https://photos.zillowstatic.com/fp/1a67d8affb5db017a4091ab8ff628818-p_e.jpg
"2322 Wyandotte Dr, Oakville, ON L6L 2T6",L6L2T6,Oakville,ON,1399000.0,3.0,3.0,,,6720.7038,sqft,https://zillow.com/homedetails/2322-Wyandotte-Dr-Oakville-ON-L6L-2T6/2063719027_zpid/,43.407433,-79.72338,SINGLE_FAMILY,https://photos.zillowstatic.com/fp/055bfab12667a48cc5cf920c59a6d1ad-p_e.jpg
"3133 Hiram Ter, Oakville, ON L6M 0P7",L6M0P7,Oakville,ON,1699000.0,4.0,3.0,,,3611.6604,sqft,https://zillow.com/homedetails/3133-Hiram-Ter-Oakville-ON-L6M-0P7/2065744451_zpid/,43.4694,-79.74702,SINGLE_FAMILY,https://photos.zillowstatic.com/fp/b1f4fadaa854966929ce167c00622891-p_e.jpg
"19 Hays Blvd #27, Oakville, ON L6H 0H8",L6H0H8,Oakville,ON,649999.0,2.0,2.0,,,,,https://zillow.com/homedetails/19-Hays-Blvd-27-Oakville-ON-L6H-0H8/2057143319_zpid/,43.478466,-79.72724,TOWNHOUSE,https://photos.zillowstatic.com/fp/de0ccb8d10df149ffc573003bc9782da-p_e.jpg
"2300 Upper Middle Rd W #223, Oakville, ON L6M 0T4",L6M0T4,Oakville,ON,699000.0,2.0,1.0,,,,,https://zillow.com/homedetails/2300-Upper-Middle-Rd-W-223-Oakville-ON-L6M-0T4/446858645_zpid/,43.427616,-79.75269,APARTMENT,https://photos.zillowstatic.com/fp/b7ea44564817f2fa018fab4ee756570a-p_e.jpg
"2207 Elmhurst Ave, Oakville, ON L6J 5G4",L6J5G4,Oakville,ON,1899900.0,4.0,2.0,,,8769.9,sqft,https://zillow.com/homedetails/2207-Elmhurst-Ave-Oakville-ON-L6J-5G4/449632581_zpid/,43.47737,-79.64239,SINGLE_FAMILY,https://photos.zillowstatic.com/fp/cd4fd3ae0d3a9faecf6ad35dd7d7b5f2-p_e.jpg
"2244 Marine Dr #2244, Oakville, ON L6L 1C1",L6L1C1,Oakville,ON,1059000.0,4.0,2.0,,,,,https://zillow.com/homedetails/2244-Marine-Dr-2244-Oakville-ON-L6L-1C1/441142388_zpid/,43.398163,-79.704056,TOWNHOUSE,https://photos.zillowstatic.com/fp/fda73dee9dc6c18dce77432323825738-p_e.jpg
"1532 6th Line #14, Oakville, ON L6H 2P2",L6H2P2,Oakville,ON,849000.0,3.0,3.0,,,,,https://zillow.com/homedetails/1532-6th-Line-14-Oakville-ON-L6H-2P2/449628963_zpid/,43.465454,-79.711494,TOWNHOUSE,https://photos.zillowstatic.com/fp/b11d58d7995e7cd5ab04be2dd6a3e96a-p_e.jpg
"2021 6th Line #20, Oakville, ON L6H 4S2",L6H4S2,Oakville,ON,898900.0,3.0,3.0,,,,,https://zillow.com/homedetails/2021-6th-Line-20-Oakville-ON-L6H-4S2/2055265110_zpid/,43.46721,-79.71266,TOWNHOUSE,https://photos.zillowstatic.com/fp/339a8539b8ee3fd4963850182950dfc0-p_e.jpg
"2101 Salmon Rd, Oakville, ON L6L 1M2",L6L1M2,Oakville,ON,1750000.0,5.0,4.0,,,0.298989898989899,acres,https://zillow.com/homedetails/2101-Salmon-Rd-Oakville-ON-L6L-1M2/449649333_zpid/,43.403427,-79.70357,SINGLE_FAMILY,https://photos.zillowstatic.com/fp/b6b4b59ff58b098f379072b3459c77a4-p_e.jpg
"244 Gatwick Dr, Oakville, ON L6H 7K3",L6H7K3,Oakville,ON,1239900.0,3.0,3.0,,,2109.1212,sqft,https://zillow.com/homedetails/244-Gatwick-Dr-Oakville-ON-L6H-7K3/449631048_zpid/,43.479286,-79.71379,SINGLE_FAMILY,https://photos.zillowstatic.com/fp/ff3ab20d6b3e57d80a5db5d07e0b108f-p_e.jpg
"1521 Craigleith Rd, Oakville, ON L6H 7W3",L6H7W3,Oakville,ON,2669900.0,4.0,4.0,,,6291.53,sqft,https://zillow.com/homedetails/1521-Craigleith-Rd-Oakville-ON-L6H-7W3/449630003_zpid/,43.50302,-79.698456,SINGLE_FAMILY,https://photos.zillowstatic.com/fp/125728a2b6a50c2cab5ac931312a4aa4-p_e.jpg
"35 Chester St, Oakville, ON L6H 6J9",L6H6J9,Oakville,ON,1197000.0,3.0,3.0,,,1777.9872,sqft,https://zillow.com/homedetails/35-Chester-St-Oakville-ON-L6H-6J9/449629419_zpid/,43.47249,-79.7222,TOWNHOUSE,https://photos.zillowstatic.com/fp/13810d2ca6d3f32f12fe36dc6745eb86-p_e.jpg
"2459 Belt Ln, Oakville, ON L6M 5L9",L6M5L9,Oakville,ON,1199000.0,3.0,3.0,,,930.09,sqft,https://zillow.com/homedetails/2459-Belt-Ln-Oakville-ON-L6M-5L9/449629017_zpid/,43.418022,-79.75014,TOWNHOUSE,https://photos.zillowstatic.com/fp/fc4f3e12c379787cb6cad3537831cfb1-p_e.jpg
"266 Harold Dent Trl, Oakville, ON L6M 1S1",L6M1S1,Oakville,ON,1799900.0,3.0,4.0,,,3196.0,sqft,https://zillow.com/homedetails/266-Harold-Dent-Trl-Oakville-ON-L6M-1S1/2079828042_zpid/,43.477886,-79.74516,TOWNHOUSE,https://photos.zillowstatic.com/fp/f97823314299381e3e1ac540a03e7e64-p_e.jpg
"10 Timber Ln, Oakville, ON L6L 2Z3",L6L2Z3,Oakville,ON,3895000.0,4.0,5.0,3083.0,1263.38,4324.0,sqft,https://zillow.com/homedetails/10-Timber-Ln-Oakville-ON-L6L-2Z3/2055459066_zpid/,43.38693,-79.713,SINGLE_FAMILY,https://photos.zillowstatic.com/fp/44139805452989572e853eb3b678ee15-p_e.jpg
"65 Masterman Cres, Oakville, ON L6M 0W3",L6M0W3,Oakville,ON,1589990.0,4.0,4.0,,,3061.1196,sqft,https://zillow.com/homedetails/65-Masterman-Cres-Oakville-ON-L6M-0W3/448710175_zpid/,43.479465,-79.73559,SINGLE_FAMILY,https://photos.zillowstatic.com/fp/5309f15fe4ceb10d82516a3472452835-p_e.jpg
"489 Lakeshore Rd E, Oakville, ON L6J 1K4",L6J1K4,Oakville,ON,24980000.0,5.0,8.0,,,1.005,acres,https://zillow.com/homedetails/489-Lakeshore-Rd-E-Oakville-ON-L6J-1K4/2076624930_zpid/,43.452705,-79.66105,SINGLE_FAMILY,https://photos.zillowstatic.com/fp/35e3fb59e668482614d0f1c9df4b6c5e-p_e.jpg
"2020 Joshuas Creek Dr, Oakville, ON L6H 6E5",L6H6E5,Oakville,ON,2199000.0,4.0,4.0,,,9877.8096,sqft,https://zillow.com/homedetails/2020-Joshuas-Creek-Dr-Oakville-ON-L6H-6E5/2063757469_zpid/,43.492645,-79.68381,SINGLE_FAMILY,https://photos.zillowstatic.com/fp/c4f1a95db53747a310180d5fe60f43da-p_e.jpg
"3302 Rattlesnake Path, Oakville, ON L6M 5K4",L6M5K4,Oakville,ON,2900000.0,5.0,5.0,,,4500.0,sqft,https://zillow.com/homedetails/3302-Rattlesnake-Path-Oakville-ON-L6M-5K4/449637882_zpid/,43.47729,-79.748566,SINGLE_FAMILY,https://photos.zillowstatic.com/fp/4e5c8b3df1820e4cf9b05235f9b13f10-p_e.jpg
"2320 Baronwood Dr, Oakville, ON L6M 4Z5",L6M4Z5,Oakville,ON,1649000.0,4.0,4.0,,,3244.4,sqft,https://zillow.com/homedetails/2320-Baronwood-Dr-Oakville-ON-L6M-4Z5/447577448_zpid/,43.43117,-79.76768,SINGLE_FAMILY,https://photos.zillowstatic.com/fp/30ad9a3495f7431f53233907ee178d25-p_e.jpg
"425 Threshing Mill Blvd, Oakville, ON L6H 0T4",L6H0T4,Oakville,ON,2120000.0,6.0,4.0,,,4692.3948,sqft,https://zillow.com/homedetails/425-Threshing-Mill-Blvd-Oakville-ON-L6H-0T4/346973641_zpid/,43.495106,-79.72196,SINGLE_FAMILY,https://photos.zillowstatic.com/fp/dea1213f3e145949d6b778ab1033d39f-p_e.jpg
"2488 Lakeshore Rd E, Oakville, ON L6J 6G2",L6J6G2,Oakville,ON,5595000.0,5.0,8.0,3720.0,1504.03,9020.0,sqft,https://zillow.com/homedetails/2488-Lakeshore-Rd-E-Oakville-ON-L6J-6G2/448968918_zpid/,43.48138,-79.62928,SINGLE_FAMILY,https://photos.zillowstatic.com/fp/997a26500237f360730b174722205fac-p_e.jpg
"1315 Pinegrove Rd, Oakville, ON L6L 2X2",L6L2X2,Oakville,ON,1350000.0,6.0,2.0,,,0.18,sqft,https://zillow.com/homedetails/1315-Pinegrove-Rd-Oakville-ON-L6L-2X2/2058029175_zpid/,43.423637,-79.70968,SINGLE_FAMILY,https://photos.zillowstatic.com/fp/f818c6c7ad9706e11222c0477222c674-p_e.jpg
"2408 Edward Leaver Trl, Oakville, ON L6M 5M2",L6M5M2,Oakville,ON,1499000.0,5.0,6.0,,,3504.9364,sqft,https://zillow.com/homedetails/2408-Edward-Leaver-Trl-Oakville-ON-L6M-5M2/447461282_zpid/,43.419083,-79.74701,SINGLE_FAMILY,https://photos.zillowstatic.com/fp/815a1e51a75ac887e1836d760e7a0736-p_e.jpg
"2592 Andover Rd, Oakville, ON L6H 6C4",L6H6C4,Oakville,ON,1515000.0,5.0,4.0,,,4391.7235,sqft,https://zillow.com/homedetails/2592-Andover-Rd-Oakville-ON-L6H-6C4/449633052_zpid/,43.476982,-79.72925,SINGLE_FAMILY,https://photos.zillowstatic.com/fp/569b25ddd19cdbeacfd310b57401916e-p_e.jpg
"134 Abbey Ct, Oakville, ON L6J 4L1",L6J4L1,Oakville,ON,3268000.0,5.0,4.0,,,0.333,sqft,https://zillow.com/homedetails/134-Abbey-Ct-Oakville-ON-L6J-4L1/2060427648_zpid/,43.463127,-79.65189,SINGLE_FAMILY,https://photos.zillowstatic.com/fp/2f33790d854c438c7239de07f7ff17a7-p_e.jpg
"1137 Manor Rd, Oakville, ON L6M 1G3",L6M1G3,Oakville,ON,2038000.0,5.0,4.0,2713.0,751.2,5587.425,sqft,https://zillow.com/homedetails/1137-Manor-Rd-Oakville-ON-L6M-1G3/449642287_zpid/,43.438236,-79.71682,SINGLE_FAMILY,https://photos.zillowstatic.com/fp/41e3410b186bbcca9044157511c8866f-p_e.jpg
"1029 Oak Meadow Rd, Oakville, ON L6M 1J6",L6M1J6,Oakville,ON,1925000.0,4.0,3.0,2586.0,744.39,7272.1462,sqft,https://zillow.com/homedetails/1029-Oak-Meadow-Rd-Oakville-ON-L6M-1J6/448666104_zpid/,43.44519,-79.72083,SINGLE_FAMILY,https://photos.zillowstatic.com/fp/ecae82d325859de25e87ce29855b8589-p_e.jpg
"27 Park Ave, Oakville, ON L6J 3X9",L6J3X9,Oakville,ON,10999998.0,5.0,8.0,,,0.4921636822773186,acres,https://zillow.com/homedetails/27-Park-Ave-Oakville-ON-L6J-3X9/2061158086_zpid/,43.45076,-79.65846,SINGLE_FAMILY,https://photos.zillowstatic.com/fp/0ce2ca467a73887cadf823b086ad45d9-p_e.jpg
"3183 Stornoway Cir, Oakville, ON L6M 5H7",L6M5H7,Oakville,ON,828000.0,3.0,3.0,,,1133.3811,sqft,https://zillow.com/homedetails/3183-Stornoway-Cir-Oakville-ON-L6M-5H7/2063807353_zpid/,43.4328,-79.777,TOWNHOUSE,https://photos.zillowstatic.com/fp/7b1ae62ba8fd3db657366ad707df4da1-p_e.jpg
"2346 Rebecca St, Oakville, ON L6L 2A9",L6L2A9,Oakville,ON,2929000.0,5.0,5.0,,,0.17,sqft,https://zillow.com/homedetails/2346-Rebecca-St-Oakville-ON-L6L-2A9/2075314739_zpid/,43.401394,-79.71595,SINGLE_FAMILY,https://photos.zillowstatic.com/fp/e10b6df1658a93b438442f87c77261e7-p_e.jpg
"2165 Dunedin Rd, Oakville, ON L6J 5V2",L6J5V2,Oakville,ON,1789000.0,5.0,2.0,,,6612.0,sqft,https://zillow.com/homedetails/2165-Dunedin-Rd-Oakville-ON-L6J-5V2/448471942_zpid/,43.482765,-79.65203,SINGLE_FAMILY,https://photos.zillowstatic.com/fp/f4058efdb81d0cfa842f2688bb4ccb22-p_e.jpg
"1008 Falgarwood Dr #1, Oakville, ON L6H 2P5",L6H2P5,Oakville,ON,568888.0,3.0,2.0,,,,,https://zillow.com/homedetails/1008-Falgarwood-Dr-1-Oakville-ON-L6H-2P5/2063779142_zpid/,43.47219,-79.68305,TOWNHOUSE,https://photos.zillowstatic.com/fp/42564f5ce4519c28b1e587b81f44938c-p_e.jpg
"421 Chartwell Rd, Oakville, ON L6J 4A4",L6J4A4,Oakville,ON,7249000.0,6.0,8.0,5196.0,1395.11,0.33321854912764,acres,https://zillow.com/homedetails/421-Chartwell-Rd-Oakville-ON-L6J-4A4/2069736375_zpid/,43.462154,-79.66967,SINGLE_FAMILY,https://photos.zillowstatic.com/fp/b8f04f0869bcce12cea6e5309b24b663-p_e.jpg
"267 Eastcourt Rd, Oakville, ON L6J 4Y5",L6J4Y5,Oakville,ON,5750000.0,5.0,6.0,4283.0,1342.52,0.3429752066115702,acres,https://zillow.com/homedetails/267-Eastcourt-Rd-Oakville-ON-L6J-4Y5/448710994_zpid/,43.475487,-79.64598,SINGLE_FAMILY,https://photos.zillowstatic.com/fp/2238b41e3d3e795b8c2015eafdd4db64-p_e.jpg
"3286 Shelburne Pl, Oakville, ON L6L 5V9",L6L5V9,Oakville,ON,3998000.0,5.0,4.0,,,6376.584,sqft,https://zillow.com/homedetails/3286-Shelburne-Pl-Oakville-ON-L6L-5V9/2052920966_zpid/,43.380642,-79.71605,SINGLE_FAMILY,https://photos.zillowstatic.com/fp/4d41cf4923fbba967c5a8bda020a16d4-p_e.jpg
"1305 Ashwood Ter, Oakville, ON L6M 4A7",L6M4A7,Oakville,ON,1749900.0,4.0,5.0,,,4257.5076,sqft,https://zillow.com/homedetails/1305-Ashwood-Ter-Oakville-ON-L6M-4A7/449574377_zpid/,43.451893,-79.75013,SINGLE_FAMILY,https://photos.zillowstatic.com/fp/e37795603e03e58e9c456a8ec8ac35f7-p_e.jpg
"15 Chartwell Rd, Oakville, ON L6J 3Z3",L6J3Z3,Oakville,ON,12999999.0,5.0,7.0,,,0.5087894857667584,acres,https://zillow.com/homedetails/15-Chartwell-Rd-Oakville-ON-L6J-3Z3/352380160_zpid/,43.452168,-79.656,SINGLE_FAMILY,https://photos.zillowstatic.com/fp/90696fa14ba9ae10792ca82d6a5b0599-p_e.jpg
"1031 Lakeshore Rd W, Oakville, ON L6L 1E7",L6L1E7,Oakville,ON,5190000.0,5.0,7.0,,,0.3925619834710744,acres,https://zillow.com/homedetails/1031-Lakeshore-Rd-W-Oakville-ON-L6L-1E7/2077038619_zpid/,43.42332,-79.68973,SINGLE_FAMILY,https://photos.zillowstatic.com/fp/fa6cc6505e535ba115cbff117dc7d2c7-p_e.jpg
"3101 Portree Cres, Oakville, ON L6M 5C4",L6M5C4,Oakville,ON,1499888.0,4.0,3.0,,,4574.2554,sqft,https://zillow.com/homedetails/3101-Portree-Cres-Oakville-ON-L6M-5C4/2067581693_zpid/,43.429207,-79.77103,SINGLE_FAMILY,https://photos.zillowstatic.com/fp/8322b92f21edfb6a2c766579a794975a-p_e.jpg
"168 Oliver Pl, Oakville, ON L6H 1K8",L6H1K8,Oakville,ON,7498000.0,5.0,7.0,,,8295.612,sqft,https://zillow.com/homedetails/168-Oliver-Pl-Oakville-ON-L6H-1K8/2063726712_zpid/,43.459713,-79.71387,SINGLE_FAMILY,https://photos.zillowstatic.com/fp/5dbf8d3457a0f1ecc88b8e36d03e0b9b-p_e.jpg
"480 Scarsdale Cres, Oakville, ON L6L 3W7",L6L3W7,Oakville,ON,3198000.0,5.0,5.0,,,8202.0,sqft,https://zillow.com/homedetails/480-Scarsdale-Cres-Oakville-ON-L6L-3W7/2058451021_zpid/,43.412304,-79.71548,SINGLE_FAMILY,https://photos.zillowstatic.com/fp/52bb0fd3311431cd1779ba6fb64e17f8-p_e.jpg
"2338 Hyacinth Cres, Oakville, ON L6M 5M8",L6M5M8,Oakville,ON,3649900.0,5.0,5.0,,,0.2773963865932047,acres,https://zillow.com/homedetails/2338-Hyacinth-Cres-Oakville-ON-L6M-5M8/447734295_zpid/,43.42176,-79.74621,SINGLE_FAMILY,https://photos.zillowstatic.com/fp/c010e95de33e3e3028e0e9e1a79295e6-p_e.jpg
"3313 George Savage Ave, Oakville, ON L6M 5K5",L6M5K5,Oakville,ON,3269000.0,5.0,6.0,5219.0,626.37,5498.7973,sqft,https://zillow.com/homedetails/3313-George-Savage-Ave-Oakville-ON-L6M-5K5/449322093_zpid/,43.47668,-79.74968,SINGLE_FAMILY,https://photos.zillowstatic.com/fp/c16dec0882132011807b750605b39c9e-p_e.jpg
"416 Trafalgar Rd, Oakville, ON L6J 3H7",L6J3H7,Oakville,ON,3275000.0,4.0,4.0,,,0.340218489439853,acres,https://zillow.com/homedetails/416-Trafalgar-Rd-Oakville-ON-L6J-3H7/2070802470_zpid/,43.45345,-79.67891,SINGLE_FAMILY,https://photos.zillowstatic.com/fp/9fc39c01636fcc010ab8ed61730ad89b-p_e.jpg
"2067 Marine Dr #14, Oakville, ON L6L 1B8",L6L1B8,Oakville,ON,749900.0,3.0,3.0,,,,,https://zillow.com/homedetails/2067-Marine-Dr-14-Oakville-ON-L6L-1B8/2063788700_zpid/,43.40221,-79.6993,TOWNHOUSE,https://photos.zillowstatic.com/fp/54911f0f58411cd9c448ba868ed016a9-p_e.jpg
"478 Southland Cres, Oakville, ON L6L 3N8",L6L3N8,Oakville,ON,1149999.0,4.0,3.0,,,7440.0,sqft,https://zillow.com/homedetails/478-Southland-Cres-Oakville-ON-L6L-3N8/2071899002_zpid/,43.409863,-79.71774,SINGLE_FAMILY,https://photos.zillowstatic.com/fp/e91978eed0fa6a72ad31cf5e492e871b-p_e.jpg
"1365 Bishopstoke Way, Oakville, ON L6J 7A7",L6J7A7,Oakville,ON,1649000.0,6.0,4.0,2366.0,696.96,5408.6711,sqft,https://zillow.com/homedetails/1365-Bishopstoke-Way-Oakville-ON-L6J-7A7/2058419652_zpid/,43.499622,-79.665665,SINGLE_FAMILY,https://photos.zillowstatic.com/fp/7e2c79b5b5c7ddae33b5782d1d5fb6c2-p_e.jpg
"2375 Bronte Rd #307, Oakville, ON L6M 4G4",L6M4G4,Oakville,ON,599900.0,2.0,2.0,,,,,https://zillow.com/homedetails/2375-Bronte-Rd-307-Oakville-ON-L6M-4G4/439606932_zpid/,43.412422,-79.7434,TOWNHOUSE,https://photos.zillowstatic.com/fp/e518453a744384f842e772d279c0da2a-p_e.jpg
"1238 Napier Cres, Oakville, ON L6H 2A4",L6H2A4,Oakville,ON,1049000.0,5.0,3.0,,,4375.0,sqft,https://zillow.com/homedetails/1238-Napier-Cres-Oakville-ON-L6H-2A4/449395925_zpid/,43.462532,-79.69762,SINGLE_FAMILY,https://photos.zillowstatic.com/fp/6b4d535f2c592a5b13f7375b7f240de5-p_e.jpg
"21 Ennisclare Dr E, Oakville, ON L6J 4N3",L6J4N3,Oakville,ON,18000000.0,5.0,7.0,,,0.71,sqft,https://zillow.com/homedetails/21-Ennisclare-Dr-E-Oakville-ON-L6J-4N3/2071857659_zpid/,43.462666,-79.64542,SINGLE_FAMILY,https://photos.zillowstatic.com/fp/fc9d6577af566e0b53f0e60793a9696d-p_e.jpg
"1522 Lancaster Dr #18, Oakville, ON L6H 2Z2",L6H2Z2,Oakville,ON,874900.0,3.0,2.0,1264.0,692.17,,,https://zillow.com/homedetails/1522-Lancaster-Dr-18-Oakville-ON-L6H-2Z2/449351797_zpid/,43.48133,-79.693085,TOWNHOUSE,https://photos.zillowstatic.com/fp/546b23591d3e4a33677651805d3bbdd4-p_e.jpg
"16 Ennisclare Dr W, Oakville, ON L6J 4N2",L6J4N2,Oakville,ON,12888000.0,5.0,6.0,,,0.2609345454545455,acres,https://zillow.com/homedetails/16-Ennisclare-Dr-W-Oakville-ON-L6J-4N2/2063753606_zpid/,43.46143,-79.64621,SINGLE_FAMILY,https://photos.zillowstatic.com/fp/f700bb104504f997618fc065d8e5f7ce-p_e.jpg
"536 Sandmere Pl, Oakville, ON L6L 4G4",L6L4G4,Oakville,ON,2980000.0,6.0,6.0,,,7820.0,sqft,https://zillow.com/homedetails/536-Sandmere-Pl-Oakville-ON-L6L-4G4/2078943335_zpid/,43.415462,-79.70781,SINGLE_FAMILY,https://photos.zillowstatic.com/fp/4007586c230166e8538ce8735e70a14f-p_e.jpg
"233 Lakewood Dr, Oakville, ON L6K 1B3",L6K1B3,Oakville,ON,7988000.0,5.0,4.0,6569.0,1216.01,0.3698850436179981,acres,https://zillow.com/homedetails/233-Lakewood-Dr-Oakville-ON-L6K-1B3/442136100_zpid/,43.434544,-79.675575,SINGLE_FAMILY,https://photos.zillowstatic.com/fp/e158ee1cb8981f683f7ab37bb97c8fc5-p_e.jpg
"26 Holyrood Ave, Oakville, ON L6K 2V3",L6K2V3,Oakville,ON,8299000.0,,,,,0.75,sqft,https://zillow.com/homedetails/26-Holyrood-Ave-Oakville-ON-L6K-2V3/2076625010_zpid/,43.43241,-79.678,LOT,https://photos.zillowstatic.com/fp/2dd1294386fe29668710b9cc82edbd51-p_e.jpg
"1125 Grandeur Cres, Oakville, ON L6H 4B2",L6H4B2,Oakville,ON,1489800.0,3.0,4.0,1765.0,844.08,5915.2929,sqft,https://zillow.com/homedetails/1125-Grandeur-Cres-Oakville-ON-L6H-4B2/366559308_zpid/,43.48597,-79.69872,SINGLE_FAMILY,https://photos.zillowstatic.com/fp/89b462c01c034ddbcb5f911302b29e32-p_e.jpg
"144 Mayla Dr, Oakville, ON L6H 3T4",L6H3T4,Oakville,ON,1950000.0,5.0,4.0,,,5495.282,sqft,https://zillow.com/homedetails/144-Mayla-Dr-Oakville-ON-L6H-3T4/449398695_zpid/,43.463295,-79.719696,SINGLE_FAMILY,https://photos.zillowstatic.com/fp/09d788522e456bb5b92a45ac36a6b673-p_e.jpg
"3191 George Savage Ave, Oakville, ON L6M 1L5",L6M1L5,Oakville,ON,1798888.0,4.0,4.0,,,3560.135,sqft,https://zillow.com/homedetails/3191-George-Savage-Ave-Oakville-ON-L6M-1L5/448260970_zpid/,43.473732,-79.74575,SINGLE_FAMILY,https://photos.zillowstatic.com/fp/d7d9b44b98e4dc2b6fd9646e80efe0a2-p_e.jpg
"2554 Dashwood Dr, Oakville, ON L6M 4C2",L6M4C2,Oakville,ON,1175000.0,3.0,3.0,1457.0,806.45,2732.5785,sqft,https://zillow.com/homedetails/2554-Dashwood-Dr-Oakville-ON-L6M-4C2/2067843145_zpid/,43.45167,-79.75446,SINGLE_FAMILY,https://photos.zillowstatic.com/fp/81fa0573e13de361b412c755da37645d-p_e.jpg
"2189 Shorncliffe Blvd, Oakville, ON L6M 3X2",L6M3X2,Oakville,ON,1049999.0,3.0,3.0,1425.0,736.84,2825.9663,sqft,https://zillow.com/homedetails/2189-Shorncliffe-Blvd-Oakville-ON-L6M-3X2/2068394952_zpid/,43.437996,-79.75383,SINGLE_FAMILY,https://photos.zillowstatic.com/fp/fb3a6b27f472dcf8bf084e168a4b4da0-p_e.jpg
"1051 Pinewood Ave, Oakville, ON L6J 2A2",L6J2A2,Oakville,ON,6282000.0,6.0,6.0,,,0.4993112947658402,acres,https://zillow.com/homedetails/1051-Pinewood-Ave-Oakville-ON-L6J-2A2/448379454_zpid/,43.459873,-79.664536,SINGLE_FAMILY,https://photos.zillowstatic.com/fp/49875a64b2f9b0f788b231501e27344d-p_e.jpg
"525 Dundas St E, Oakville, ON L6H 7L3",L6H7L3,Oakville,ON,1249999.0,4.0,4.0,2070.0,603.86,1483.8384,sqft,https://zillow.com/homedetails/525-Dundas-St-E-Oakville-ON-L6H-7L3/2068447952_zpid/,43.49321,-79.71475,TOWNHOUSE,https://photos.zillowstatic.com/fp/b9ed0f23ec07a779cf638debd1c8b621-p_e.jpg
"116 Chartwell Rd, Oakville, ON L6J 3Z6",L6J3Z6,Oakville,ON,9500000.0,4.0,6.0,,,0.4440404499540862,acres,https://zillow.com/homedetails/116-Chartwell-Rd-Oakville-ON-L6J-3Z6/447924945_zpid/,43.45458,-79.66005,SINGLE_FAMILY,https://photos.zillowstatic.com/fp/e0438be1612992ed7e0e6a00296a06e2-p_e.jpg
"55 Chisholm St, Oakville, ON L6K 3H6",L6K3H6,Oakville,ON,4592000.0,4.0,4.0,,,7160.0,sqft,https://zillow.com/homedetails/55-Chisholm-St-Oakville-ON-L6K-3H6/347821511_zpid/,43.440502,-79.67087,SINGLE_FAMILY,https://photos.zillowstatic.com/fp/764139a37c9fa167c0a177488848b4a6-p_e.jpg
"1156 Glen Valley Rd, Oakville, ON L6M 3K6",L6M3K6,Oakville,ON,1199000.0,3.0,3.0,1634.0,733.78,2550.548,sqft,https://zillow.com/homedetails/1156-Glen-Valley-Rd-Oakville-ON-L6M-3K6/2063724251_zpid/,43.449017,-79.73276,SINGLE_FAMILY,https://photos.zillowstatic.com/fp/ae8efbf385e95dc47a5e4344795a1543-p_e.jpg
"348 Winston Rd, Oakville, ON L6L 4W5",L6L4W5,Oakville,ON,4988888.0,5.0,6.0,,,0.2664428374655647,acres,https://zillow.com/homedetails/348-Winston-Rd-Oakville-ON-L6L-4W5/2071839889_zpid/,43.42365,-79.695114,SINGLE_FAMILY,https://photos.zillowstatic.com/fp/b92a39bd1ca829bf059dd998926bbb63-p_e.jpg
"216 Oak Park Blvd #329, Oakville, ON L6H 0T8",L6H0T8,Oakville,ON,599999.0,1.0,2.0,924.0,649.35,,,https://zillow.com/homedetails/216-Oak-Park-Blvd-329-Oakville-ON-L6H-0T8/2063725630_zpid/,43.48175,-79.716034,CONDO,https://photos.zillowstatic.com/fp/34bf82e218dadb881c5a0ae8f863d201-p_e.jpg
"561 Rebecca St, Oakville, ON L6K 1L2",L6K1L2,Oakville,ON,1995000.0,4.0,4.0,1733.0,1151.18,9774.15,sqft,https://zillow.com/homedetails/561-Rebecca-St-Oakville-ON-L6K-1L2/2084934256_zpid/,43.428036,-79.69072,SINGLE_FAMILY,https://photos.zillowstatic.com/fp/2c97a3e7587aaa05e3627cf4a6d50440-p_e.jpg
"214 Randall St, Oakville, ON L6J 1P7",L6J1P7,Oakville,ON,1.0,,,,,5694.1298,sqft,https://zillow.com/homedetails/214-Randall-St-Oakville-ON-L6J-1P7/439269934_zpid/,43.446808,-79.66945,SINGLE_FAMILY,https://photos.zillowstatic.com/fp/19708b1a5c346f1d217c83e70f3d7568-p_e.jpg
"2281 Stone Glen Cres, Oakville, ON L6M 0C8",L6M0C8,Oakville,ON,899999.0,3.0,3.0,,,1811.4551,sqft,https://zillow.com/homedetails/2281-Stone-Glen-Cres-Oakville-ON-L6M-0C8/449372737_zpid/,43.448685,-79.76074,TOWNHOUSE,https://photos.zillowstatic.com/fp/efa6031bf295663d1ffda523564d0b7f-p_e.jpg
"1561 Greenbriar Dr W, Oakville, ON L6M 1Y7",L6M1Y7,Oakville,ON,1429000.0,4.0,3.0,,,4685.2725,sqft,https://zillow.com/homedetails/1561-Greenbriar-Dr-W-Oakville-ON-L6M-1Y7/446906628_zpid/,43.44639,-79.7312,SINGLE_FAMILY,https://photos.zillowstatic.com/fp/cf685a78a76513a383d2c1b372397efe-p_e.jpg
"2764 Rosewood Ln, Oakville, ON L6J 7M3",L6J7M3,Oakville,ON,2499999.0,5.0,5.0,3189.0,783.94,5957.0154,sqft,https://zillow.com/homedetails/2764-Rosewood-Ln-Oakville-ON-L6J-7M3/2063765163_zpid/,43.497932,-79.65279,SINGLE_FAMILY,https://photos.zillowstatic.com/fp/bf800df10d4a744ca9440b04883521fa-p_e.jpg
"138 Cavendish Ct, Oakville, ON L6J 5S2",L6J5S2,Oakville,ON,3499000.0,5.0,5.0,,,0.6618518181818183,acres,https://zillow.com/homedetails/138-Cavendish-Ct-Oakville-ON-L6J-5S2/442243474_zpid/,43.467827,-79.64717,SINGLE_FAMILY,https://photos.zillowstatic.com/fp/97fe75c88764bd4b8af4ec6ef310c8b3-p_e.jpg
"450 Tower Dr, Oakville, ON L6L 4R3",L6L4R3,Oakville,ON,3750000.0,5.0,6.0,3233.0,1159.91,7523.318,sqft,https://zillow.com/homedetails/450-Tower-Dr-Oakville-ON-L6L-4R3/2064611690_zpid/,43.422962,-79.70163,SINGLE_FAMILY,https://photos.zillowstatic.com/fp/3d6f6af1f0ab0242cc532ff1f23a95a6-p_e.jpg
"2342 Woodridge Way, Oakville, ON L6H 6S3",L6H6S3,Oakville,ON,1499000.0,4.0,3.0,,,5446.84,sqft,https://zillow.com/homedetails/2342-Woodridge-Way-Oakville-ON-L6H-6S3/2056482419_zpid/,43.487843,-79.70709,SINGLE_FAMILY,https://photos.zillowstatic.com/fp/b41beac953154a41d3508d1164271303-p_e.jpg
"1337 Waverly Ave, Oakville, ON L6L 2S4",L6L2S4,Oakville,ON,3490000.0,5.0,5.0,,,10051.9602,sqft,https://zillow.com/homedetails/1337-Waverly-Ave-Oakville-ON-L6L-2S4/2056084303_zpid/,43.419983,-79.70629,SINGLE_FAMILY,https://photos.zillowstatic.com/fp/0d64f26bec3eb0799f1f3fef623d724e-p_e.jpg
"1438 Winterbourne Dr, Oakville, ON L6J 7B5",L6J7B5,Oakville,ON,1590000.0,5.0,3.0,,,5560.9388,sqft,https://zillow.com/homedetails/1438-Winterbourne-Dr-Oakville-ON-L6J-7B5/2063796134_zpid/,43.5011,-79.66563,SINGLE_FAMILY,https://photos.zillowstatic.com/fp/94a63da07499569b7a76d0ae9fc11462-p_e.jpg
"3500 Lakeshore Rd W #510, Oakville, ON L6L 0B4",L6L0B4,Oakville,ON,1079000.0,2.0,2.0,950.0,1135.79,,,https://zillow.com/homedetails/3500-Lakeshore-Rd-W-510-Oakville-ON-L6L-0B4/2069543011_zpid/,43.373783,-79.721245,CONDO,https://photos.zillowstatic.com/fp/114b8a62e3a61cf9e111b27a8a0dc634-p_e.jpg
"280 Balsam Dr, Oakville, ON L6J 3X6",L6J3X6,Oakville,ON,6395000.0,4.0,7.0,,,0.5057851239669422,acres,https://zillow.com/homedetails/280-Balsam-Dr-Oakville-ON-L6J-3X6/2063758764_zpid/,43.456276,-79.667625,SINGLE_FAMILY,https://photos.zillowstatic.com/fp/89ea349806696953ffdab9f92b435b99-p_e.jpg
"574 Stephens Cres W, Oakville, ON L6K 1Y3",L6K1Y3,Oakville,ON,3650000.0,5.0,4.0,3485.0,1047.35,8820.0,sqft,https://zillow.com/homedetails/574-Stephens-Cres-W-Oakville-ON-L6K-1Y3/376998347_zpid/,43.43235,-79.69784,SINGLE_FAMILY,https://photos.zillowstatic.com/fp/9b86c4ccbbf21387c10510b23b9c7abb-p_e.jpg
"1104 Balmoral Pl, Oakville, ON L6J 2C9",L6J2C9,Oakville,ON,6850000.0,5.0,6.0,,,0.47,sqft,https://zillow.com/homedetails/1104-Balmoral-Pl-Oakville-ON-L6J-2C9/448643393_zpid/,43.46388,-79.66544,SINGLE_FAMILY,https://photos.zillowstatic.com/fp/6c82329a48520f85dd39239c3c59a7c2-p_e.jpg
"1344 Bridge Rd, Oakville, ON L6L 2C7",L6L2C7,Oakville,ON,1799000.0,3.0,3.0,1087.0,1655.01,7534.0,sqft,https://zillow.com/homedetails/1344-Bridge-Rd-Oakville-ON-L6L-2C7/2085199846_zpid/,43.42005,-79.70679,SINGLE_FAMILY,https://photos.zillowstatic.com/fp/818a6fcb10f4617fbc59f200312abee6-p_e.jpg
"234 Maurice Dr, Oakville, ON L6K 2X1",L6K2X1,Oakville,ON,3648000.0,5.0,7.0,,,9600.0,sqft,https://zillow.com/homedetails/234-Maurice-Dr-Oakville-ON-L6K-2X1/2065463191_zpid/,43.439896,-79.68268,SINGLE_FAMILY,https://photos.zillowstatic.com/fp/642d65cfd975a4a325c26b7cdb6a7cac-p_e.jpg
"620 Trudale Ct, Oakville, ON L6L 4H1",L6L4H1,Oakville,ON,2849000.0,5.0,5.0,,,7525.6555,sqft,https://zillow.com/homedetails/620-Trudale-Ct-Oakville-ON-L6L-4H1/2061533361_zpid/,43.41909,-79.7112,SINGLE_FAMILY,https://photos.zillowstatic.com/fp/274e2ba2a82c5c6ef6f7588010bdd888-p_e.jpg
"1012 Glenbrook Ave, Oakville, ON L6H 3Z8",L6H3Z8,Oakville,ON,1499000.0,5.0,4.0,,,7249.5423,sqft,https://zillow.com/homedetails/1012-Glenbrook-Ave-Oakville-ON-L6H-3Z8/2063792890_zpid/,43.48302,-79.69749,SINGLE_FAMILY,https://photos.zillowstatic.com/fp/20998d77a6a15c1aaef5b937178ec182-p_e.jpg
"235 Lakewood Dr, Oakville, ON L6K 1B3",L6K1B3,Oakville,ON,4850000.0,5.0,5.0,6220.0,779.74,0.593297337006428,acres,https://zillow.com/homedetails/235-Lakewood-Dr-Oakville-ON-L6K-1B3/2062508658_zpid/,43.43438,-79.6759,SINGLE_FAMILY,https://photos.zillowstatic.com/fp/c6f531840ed790b07e598d003da649af-p_e.jpg
"1194 Stirling Dr, Oakville, ON L6L 1E6",L6L1E6,Oakville,ON,3749900.0,4.0,4.0,4294.0,873.29,0.3856749311294766,acres,https://zillow.com/homedetails/1194-Stirling-Dr-Oakville-ON-L6L-1E6/349587450_zpid/,43.416447,-79.689445,SINGLE_FAMILY,https://photos.zillowstatic.com/fp/7bedf718a1fdd7b60e475d247972c86d-p_e.jpg
"2235 Hummingbird Way, Oakville, ON L6M 3Z6",L6M3Z6,Oakville,ON,899000.0,3.0,2.0,,,3926.613,sqft,https://zillow.com/homedetails/2235-Hummingbird-Way-Oakville-ON-L6M-3Z6/2063812360_zpid/,43.44406,-79.74999,TOWNHOUSE,https://photos.zillowstatic.com/fp/f36fe80dc5e0a9675f1ce5592408d780-p_e.jpg
"3456 Wilmot Cres, Oakville, ON L6L 6E1",L6L6E1,Oakville,ON,1599900.0,4.0,4.0,,,0.2892657093663912,acres,https://zillow.com/homedetails/3456-Wilmot-Cres-Oakville-ON-L6L-6E1/351159550_zpid/,43.376766,-79.72508,SINGLE_FAMILY,https://photos.zillowstatic.com/fp/189dc38d2bbe7259aa19838cb4a22bdd-p_e.jpg
"261 Church St #404, Oakville, ON L6J 1N7",L6J1N7,Oakville,ON,3998900.0,2.0,3.0,3188.0,1254.36,,,https://zillow.com/homedetails/261-Church-St-404-Oakville-ON-L6J-1N7/440185430_zpid/,43.44727,-79.66824,CONDO,https://photos.zillowstatic.com/fp/056f0c11a659116376897f77df303b2b-p_e.jpg
"1322 Stanbury Rd, Oakville, ON L6L 2J4",L6L2J4,Oakville,ON,4888888.0,5.0,6.0,,,0.2582644628099173,acres,https://zillow.com/homedetails/1322-Stanbury-Rd-Oakville-ON-L6L-2J4/2068458174_zpid/,43.417362,-79.70198,SINGLE_FAMILY,https://photos.zillowstatic.com/fp/a5a0232ffe706444451f63b23501c880-p_e.jpg
"3002 Preserve Dr UNIT 12, Oakville, ON L6M 0V2",L6M0V2,Oakville,ON,1149900.0,5.0,4.0,,,1204.895,sqft,https://zillow.com/homedetails/3002-Preserve-Dr-UNIT-12-Oakville-ON-L6M-0V2/448603811_zpid/,43.474228,-79.737144,TOWNHOUSE,https://photos.zillowstatic.com/fp/02adce2996eb4ddbe5b38525e5b72fa6-p_e.jpg
"568 Marlatt Dr, Oakville, ON L6H 5X3",L6H5X3,Oakville,ON,1398000.0,4.0,4.0,,,4743.8565,sqft,https://zillow.com/homedetails/568-Marlatt-Dr-Oakville-ON-L6H-5X3/353736654_zpid/,43.464233,-79.73424,SINGLE_FAMILY,https://photos.zillowstatic.com/fp/abd99cd51e3d0ec019f7401c2dfcec8a-p_e.jpg
"241 Mississaga St, Oakville, ON L6L 3B1",L6L3B1,Oakville,ON,1899000.0,6.0,4.0,,,7801.5106,sqft,https://zillow.com/homedetails/241-Mississaga-St-Oakville-ON-L6L-3B1/2071202341_zpid/,43.391575,-79.722,SINGLE_FAMILY,https://photos.zillowstatic.com/fp/0c3e13c7c41f1a9096f5863fb05ae636-p_e.jpg
"2247 Dewsbury Dr, Oakville, ON L6M 0A6",L6M0A6,Oakville,ON,1899000.0,4.0,4.0,,,4619.23,sqft,https://zillow.com/homedetails/2247-Dewsbury-Dr-Oakville-ON-L6M-0A6/449588990_zpid/,43.42513,-79.77251,SINGLE_FAMILY,https://photos.zillowstatic.com/fp/87176a91000ff8f7aeb207c30a0fd0aa-p_e.jpg
"2346 Lower Base Line, Oakville, ON L6M 4G1",L6M4G1,Oakville,ON,1.0,,,,,38.55,acres,https://zillow.com/homedetails/2346-Lower-Base-Line-Oakville-ON-L6M-4G1/2070541196_zpid/,43.46827,-79.80581,LOT,https://photos.zillowstatic.com/fp/021fad95e42c5342b4b2bee323e0fae0-p_e.jpg
"2331 Ontario St, Oakville, ON L6L 1A5",L6L1A5,Oakville,ON,2499000.0,3.0,3.0,,,2268.8336,sqft,https://zillow.com/homedetails/2331-Ontario-St-Oakville-ON-L6L-1A5/2063747134_zpid/,43.396057,-79.70574,SINGLE_FAMILY,https://photos.zillowstatic.com/fp/b542d8c3fa6f240d47bb6b582e6dfb91-p_e.jpg
"172 Burgundy Dr, Oakville, ON L6J 4G1",L6J4G1,Oakville,ON,7299000.0,5.0,8.0,,,0.3472910927456382,acres,https://zillow.com/homedetails/172-Burgundy-Dr-Oakville-ON-L6J-4G1/439577361_zpid/,43.459114,-79.65815,SINGLE_FAMILY,https://photos.zillowstatic.com/fp/a9be4e869d6ebb8784cc77d3c60d6baa-p_e.jpg
"349 Wheat Boom Dr #307, Oakville, ON L6H 0V1",L6H0V1,Oakville,ON,749900.0,3.0,3.0,1330.0,563.83,,,https://zillow.com/homedetails/349-Wheat-Boom-Dr-307-Oakville-ON-L6H-0V1/2054489853_zpid/,43.49122,-79.722,TOWNHOUSE,https://photos.zillowstatic.com/fp/1904444784dd43236a9ffd48b2bf5ed7-p_e.jpg
"41 Chartwell Rd, Oakville, ON L6J 3Z3",L6J3Z3,Oakville,ON,6395000.0,6.0,5.0,5492.0,1164.42,0.4599999999999999,acres,https://zillow.com/homedetails/41-Chartwell-Rd-Oakville-ON-L6J-3Z3/2066572442_zpid/,43.452774,-79.65698,SINGLE_FAMILY,https://photos.zillowstatic.com/fp/5325931e3439d158034f0b6abf315dda-p_e.jpg
"1044 Argyle Dr, Oakville, ON L6J 1A7",L6J1A7,Oakville,ON,12488000.0,4.0,3.0,,,0.6826494008264463,acres,https://zillow.com/homedetails/1044-Argyle-Dr-Oakville-ON-L6J-1A7/448643335_zpid/,43.45341,-79.654854,SINGLE_FAMILY,https://photos.zillowstatic.com/fp/4b45dd03787e4118a6dcea054f171de1-p_e.jpg
"144 Genesee Dr, Oakville, ON L6H 5Y9",L6H5Y9,Oakville,ON,1175000.0,3.0,3.0,1620.0,725.31,3400.6748,sqft,https://zillow.com/homedetails/144-Genesee-Dr-Oakville-ON-L6H-5Y9/449401611_zpid/,43.472115,-79.72905,SINGLE_FAMILY,https://photos.zillowstatic.com/fp/2e6a05bf55a476a5b82a76b77f232c92-p_e.jpg
"265 Woodale Ave, Oakville, ON L6K 2N3",L6K2N3,Oakville,ON,2849000.0,5.0,5.0,3424.0,832.07,8490.0,sqft,https://zillow.com/homedetails/265-Woodale-Ave-Oakville-ON-L6K-2N3/2071668130_zpid/,43.434105,-79.69073,SINGLE_FAMILY,https://photos.zillowstatic.com/fp/41c095e8b0902e2eacef4cff3482b649-p_e.jpg
"2617 Devonsley Cres, Oakville, ON L6H 6J2",L6H6J2,Oakville,ON,1469900.0,3.0,3.0,,,4264.9911,sqft,https://zillow.com/homedetails/2617-Devonsley-Cres-Oakville-ON-L6H-6J2/449583153_zpid/,43.475838,-79.731735,SINGLE_FAMILY,https://photos.zillowstatic.com/fp/a64e74f9cbee687ccac5d2881ef63e06-p_e.jpg
"294 Rambler Ct, Oakville, ON L6H 3A6",L6H3A6,Oakville,ON,2180000.0,4.0,4.0,,,4778.8656,sqft,https://zillow.com/homedetails/294-Rambler-Ct-Oakville-ON-L6H-3A6/448787024_zpid/,43.455746,-79.7176,SINGLE_FAMILY,https://photos.zillowstatic.com/fp/fc524d87975b45d746c3b6c373dcab0a-p_e.jpg
"2163 Towne Blvd, Oakville, ON L6H 5H1",L6H5H1,Oakville,ON,1995000.0,5.0,4.0,,,8191.0,sqft,https://zillow.com/homedetails/2163-Towne-Blvd-Oakville-ON-L6H-5H1/447315395_zpid/,43.464756,-79.730225,SINGLE_FAMILY,https://photos.zillowstatic.com/fp/f418b5bed58f63210f29ebe338d4c877-p_e.jpg
"1391 Pine Glen Rd, Oakville, ON L6M 4C2",L6M4C2,Oakville,ON,1410000.0,3.0,3.0,,,3265.4294,sqft,https://zillow.com/homedetails/1391-Pine-Glen-Rd-Oakville-ON-L6M-4C2/2057653703_zpid/,43.451828,-79.75363,SINGLE_FAMILY,https://photos.zillowstatic.com/fp/9edd03fb9f123b37f716ee0600e834e7-p_e.jpg
"2175 Marine Dr #1501, Oakville, ON L6L 5L5",L6L5L5,Oakville,ON,1199900.0,2.0,2.0,1554.0,772.14,,,https://zillow.com/homedetails/2175-Marine-Dr-1501-Oakville-ON-L6L-5L5/356426425_zpid/,43.40045,-79.70387,CONDO,https://photos.zillowstatic.com/fp/d1696e05e7a3000cc9af165df8d459a0-p_e.jpg
"1404 White Oaks Blvd, Oakville, ON L6H 4R7",L6H4R7,Oakville,ON,1399000.0,4.0,3.0,2237.0,625.39,6573.5173,sqft,https://zillow.com/homedetails/1404-White-Oaks-Blvd-Oakville-ON-L6H-4R7/448216985_zpid/,43.47297,-79.69571,SINGLE_FAMILY,https://photos.zillowstatic.com/fp/48f6827098fade212fe1a7b24af07f69-p_e.jpg
"242 Burton Rd, Oakville, ON L6K 2K5",L6K2K5,Oakville,ON,3118000.0,4.0,5.0,,,7500.0,sqft,https://zillow.com/homedetails/242-Burton-Rd-Oakville-ON-L6K-2K5/2063760759_zpid/,43.43125,-79.69216,SINGLE_FAMILY,https://photos.zillowstatic.com/fp/2538ac88bd8b0f0054921936d70ed027-p_e.jpg
"363 Morrison Rd, Oakville, ON L6J 4K2",L6J4K2,Oakville,ON,4690000.0,5.0,7.0,,,0.266873507805326,acres,https://zillow.com/homedetails/363-Morrison-Rd-Oakville-ON-L6J-4K2/2063791444_zpid/,43.466652,-79.66146,SINGLE_FAMILY,https://photos.zillowstatic.com/fp/807711d2a0cc461f5ee01216e59749f8-p_e.jpg
"2469 Wooden Hill Cir, Oakville, ON L6M 4E3",L6M4E3,Oakville,ON,1149000.0,3.0,3.0,,,3033.81,sqft,https://zillow.com/homedetails/2469-Wooden-Hill-Cir-Oakville-ON-L6M-4E3/2060361440_zpid/,43.45487,-79.755005,TOWNHOUSE,https://photos.zillowstatic.com/fp/ceeb815f3c23740b69e10b94425fe986-p_e.jpg
"68 Navy St, Oakville, ON L6J 2Y9",L6J2Y9,Oakville,ON,4990000.0,3.0,4.0,,,5086.3476,sqft,https://zillow.com/homedetails/68-Navy-St-Oakville-ON-L6J-2Y9/443954145_zpid/,43.443184,-79.668785,SINGLE_FAMILY,https://photos.zillowstatic.com/fp/9c955b80f793a089ae384b8b974a46f8-p_e.jpg
"231 Wedgewood Dr, Oakville, ON L6J 4R6",L6J4R6,Oakville,ON,6750000.0,6.0,8.0,,,0.3465564738292011,acres,https://zillow.com/homedetails/231-Wedgewood-Dr-Oakville-ON-L6J-4R6/2082139334_zpid/,43.4688,-79.65131,SINGLE_FAMILY,https://photos.zillowstatic.com/fp/6d5fd52138bc601c5a4b0d7811088926-p_e.jpg
"3210 Victoria St, Oakville, ON L6L 5R2",L6L5R2,Oakville,ON,1299999.0,3.0,4.0,1752.0,742.01,6004.5,sqft,https://zillow.com/homedetails/3210-Victoria-St-Oakville-ON-L6L-5R2/348803127_zpid/,43.38563,-79.717766,SINGLE_FAMILY,https://photos.zillowstatic.com/fp/3f4565b86ca08f4acb18d455abe9d5a4-p_e.jpg
"91 Grovewood Cmn, Oakville, ON L6H 0X4",L6H0X4,Oakville,ON,1000000.0,4.0,3.0,,,,,https://zillow.com/homedetails/91-Grovewood-Cmn-Oakville-ON-L6H-0X4/448938096_zpid/,43.482895,-79.72714,TOWNHOUSE,https://photos.zillowstatic.com/fp/7aa3c6c945d15346289a9f0a12e2422f-p_e.jpg
"233 Duskywing Way #44, Oakville, ON L6L 0C5",L6L0C5,Oakville,ON,1079900.0,3.0,4.0,,,,,https://zillow.com/homedetails/233-Duskywing-Way-44-Oakville-ON-L6L-0C5/449579060_zpid/,43.380928,-79.732025,TOWNHOUSE,https://photos.zillowstatic.com/fp/a953d8b29fed537cebc3c97ade70cabd-p_e.jpg
"164 Warner Dr, Oakville, ON L6L 6E7",L6L6E7,Oakville,ON,1599000.0,6.0,4.0,2574.0,621.21,5599.81,sqft,https://zillow.com/homedetails/164-Warner-Dr-Oakville-ON-L6L-6E7/441828988_zpid/,43.374138,-79.72661,SINGLE_FAMILY,https://photos.zillowstatic.com/fp/6cbb3edc190bbefd9b99f0fd59ff91d2-p_e.jpg
"1389 Weaver Ave, Oakville, ON L6J 2L6",L6J2L6,Oakville,ON,5990000.0,5.0,5.0,,,0.3522497704315886,acres,https://zillow.com/homedetails/1389-Weaver-Ave-Oakville-ON-L6J-2L6/2064266705_zpid/,43.47119,-79.65654,SINGLE_FAMILY,https://photos.zillowstatic.com/fp/1e882dbe7d113e5446814b644a16c889-p_e.jpg
"1300 Marlborough Ct #119, Oakville, ON L6H 2S2",L6H2S2,Oakville,ON,599900.0,3.0,2.0,1289.0,465.4,,,https://zillow.com/homedetails/1300-Marlborough-Ct-119-Oakville-ON-L6H-2S2/2063148160_zpid/,43.47007,-79.692894,CONDO,https://photos.zillowstatic.com/fp/741c7809df9a4c74de861768ea08101b-p_e.jpg
"179 Douglas Ave, Oakville, ON L6J 3R9",L6J3R9,Oakville,ON,4550000.0,5.0,5.0,3003.0,1515.15,7200.0,sqft,https://zillow.com/homedetails/179-Douglas-Ave-Oakville-ON-L6J-3R9/2063724842_zpid/,43.45181,-79.666626,SINGLE_FAMILY,https://photos.zillowstatic.com/fp/2866aabedb8583885757865ece9d1ab2-p_e.jpg
"2033 Saxon Rd, Oakville, ON L6L 2V1",L6L2V1,Oakville,ON,1499000.0,4.0,2.0,,,7840.8,sqft,https://zillow.com/homedetails/2033-Saxon-Rd-Oakville-ON-L6L-2V1/449357433_zpid/,43.41618,-79.71641,SINGLE_FAMILY,https://photos.zillowstatic.com/fp/278335d91a6514c827cc3002f4eae002-p_e.jpg
"24 Raymar Pl, Oakville, ON L6J 6M1",L6J6M1,Oakville,ON,5499000.0,6.0,5.0,,,0.4255050505050505,acres,https://zillow.com/homedetails/24-Raymar-Pl-Oakville-ON-L6J-6M1/353441927_zpid/,43.449947,-79.65988,SINGLE_FAMILY,https://photos.zillowstatic.com/fp/09e25fce7ece639aa6a328ac50b77eba-p_e.jpg
"1180 Woodington Ln, Oakville, ON L6H 7V1",L6H7V1,Oakville,ON,1530000.0,5.0,4.0,,,2402.946,sqft,https://zillow.com/homedetails/1180-Woodington-Ln-Oakville-ON-L6H-7V1/448202716_zpid/,43.492195,-79.6983,TOWNHOUSE,https://photos.zillowstatic.com/fp/57639ea57981d23740b84a3e87af6f27-p_e.jpg
"1470 Bishops Gate #211, Oakville, ON L6M 4N2",L6M4N2,Oakville,ON,699000.0,3.0,2.0,,,,,https://zillow.com/homedetails/1470-Bishops-Gate-211-Oakville-ON-L6M-4N2/449346755_zpid/,43.43948,-79.73861,APARTMENT,https://photos.zillowstatic.com/fp/d36f8e29a3eb80a16491fbf631463d04-p_e.jpg
"1036 Masters Grn, Oakville, ON L6M 2N7",L6M2N7,Oakville,ON,2695000.0,5.0,4.0,2823.0,954.66,7701.981,sqft,https://zillow.com/homedetails/1036-Masters-Grn-Oakville-ON-L6M-2N7/347029741_zpid/,43.448997,-79.72578,SINGLE_FAMILY,https://photos.zillowstatic.com/fp/26ce91d83a2109055a19551dedc299c6-p_e.jpg
"159 Viewbank Cres, Oakville, ON L6L 1R3",L6L1R3,Oakville,ON,3795000.0,6.0,4.0,,,0.39,acres,https://zillow.com/homedetails/159-Viewbank-Cres-Oakville-ON-L6L-1R3/2063797436_zpid/,43.41131,-79.69611,SINGLE_FAMILY,https://photos.zillowstatic.com/fp/fb312833619735429b1a5748b40878ec-p_e.jpg
"161 Dianne Ave, Oakville, ON L6J 4G8",L6J4G8,Oakville,ON,4685000.0,4.0,4.0,,,0.33,sqft,https://zillow.com/homedetails/161-Dianne-Ave-Oakville-ON-L6J-4G8/2063809773_zpid/,43.460533,-79.65578,SINGLE_FAMILY,https://photos.zillowstatic.com/fp/81af9341fdf1fab8d818fe6c400d1c04-p_e.jpg
"1497 Stationmaster Ln, Oakville, ON L6M 3A8",L6M3A8,Oakville,ON,1999000.0,5.0,4.0,,,5932.1587,sqft,https://zillow.com/homedetails/1497-Stationmaster-Ln-Oakville-ON-L6M-3A8/352128072_zpid/,43.427578,-79.74942,SINGLE_FAMILY,https://photos.zillowstatic.com/fp/f5d6f0fbe01bef13a02396e50b0ccd9e-p_e.jpg
"2184 Postmaster Dr, Oakville, ON L6M 2Z4",L6M2Z4,Oakville,ON,1399900.0,4.0,3.0,,,1083.39,sqft,https://zillow.com/homedetails/2184-Postmaster-Dr-Oakville-ON-L6M-2Z4/449424046_zpid/,43.433353,-79.743095,TOWNHOUSE,https://photos.zillowstatic.com/fp/8c9799aa768eddce7d5e273f7cba00c8-p_e.jpg
"1185 Stag Holw, Oakville, ON L6M 5M4",L6M5M4,Oakville,ON,1699000.0,4.0,3.0,,,5023.528,sqft,https://zillow.com/homedetails/1185-Stag-Holw-Oakville-ON-L6M-5M4/447734305_zpid/,43.417038,-79.745155,SINGLE_FAMILY,https://photos.zillowstatic.com/fp/ddd12b7d1c263fc644cdeb750f10084b-p_e.jpg
"1558 Lancaster Dr #66, Oakville, ON L6H 2Z4",L6H2Z4,Oakville,ON,889000.0,3.0,2.0,1271.0,699.45,,,https://zillow.com/homedetails/1558-Lancaster-Dr-66-Oakville-ON-L6H-2Z4/449402231_zpid/,43.48262,-79.69082,TOWNHOUSE,https://photos.zillowstatic.com/fp/53f2075b3951ce419e8408d4afea4bd8-p_e.jpg
"468 Saville Cres, Oakville, ON L6L 3V1",L6L3V1,Oakville,ON,6700000.0,5.0,6.0,,,10451.75,sqft,https://zillow.com/homedetails/468-Saville-Cres-Oakville-ON-L6L-3V1/2070922153_zpid/,43.412807,-79.714195,SINGLE_FAMILY,https://photos.zillowstatic.com/fp/300be4717e0a135376da0060d0668563-p_e.jpg
"117 Watson Ave, Oakville, ON L6J 3T5",L6J3T5,Oakville,ON,2998000.0,4.0,3.0,3522.0,851.22,0.26,acres,https://zillow.com/homedetails/117-Watson-Ave-Oakville-ON-L6J-3T5/439061410_zpid/,43.451225,-79.663536,SINGLE_FAMILY,https://photos.zillowstatic.com/fp/97d17333a99101e69e591d52fefaa040-p_e.jpg
"2243 Vista Oak Rd, Oakville, ON L6M 3L8",L6M3L8,Oakville,ON,1589000.0,4.0,3.0,2225.0,714.16,4399.6973,sqft,https://zillow.com/homedetails/2243-Vista-Oak-Rd-Oakville-ON-L6M-3L8/447568991_zpid/,43.453075,-79.73995,SINGLE_FAMILY,https://photos.zillowstatic.com/fp/e436dcda4da1991afa2de42e75431d5d-p_e.jpg
"21 Howard Ave, Oakville, ON L6J 3Y2",L6J3Y2,Oakville,ON,3299000.0,4.0,4.0,2732.0,1207.54,8019.0,sqft,https://zillow.com/homedetails/21-Howard-Ave-Oakville-ON-L6J-3Y2/448889235_zpid/,43.45101,-79.65667,SINGLE_FAMILY,https://photos.zillowstatic.com/fp/5ec26a3257447d79eab8d2e2fea3956a-p_e.jpg
"3405 Mosley Gate, Oakville, ON L6H 0Z1",L6H0Z1,Oakville,ON,1999900.0,7.0,6.0,3500.0,571.4,3470.14,sqft,https://zillow.com/homedetails/3405-Mosley-Gate-Oakville-ON-L6H-0Z1/447805812_zpid/,43.49157,-79.740364,SINGLE_FAMILY,https://photos.zillowstatic.com/fp/e3fdf191d4104a1b63b677d3ec89664b-p_e.jpg
"386 Belcourt Cmn, Oakville, ON L6H 0R1",L6H0R1,Oakville,ON,1099000.0,3.0,3.0,1735.0,633.43,1389.0019,sqft,https://zillow.com/homedetails/386-Belcourt-Cmn-Oakville-ON-L6H-0R1/441145613_zpid/,43.49248,-79.720985,TOWNHOUSE,https://photos.zillowstatic.com/fp/4a41f505e9231394e1f7b6aa76599215-p_e.jpg
"14 Holyrood Ave, Oakville, ON L6K 2V3",L6K2V3,Oakville,ON,5149000.0,5.0,5.0,,,7465.3736,sqft,https://zillow.com/homedetails/14-Holyrood-Ave-Oakville-ON-L6K-2V3/351634855_zpid/,43.432735,-79.67697,SINGLE_FAMILY,https://photos.zillowstatic.com/fp/29fba3c159b3a5020e24e3d91b4bbed4-p_e.jpg
"156 Innville Cres, Oakville, ON L6L 0B8",L6L0B8,Oakville,ON,2399000.0,5.0,5.0,,,514.39,sqft,https://zillow.com/homedetails/156-Innville-Cres-Oakville-ON-L6L-0B8/2077192754_zpid/,43.38389,-79.72215,SINGLE_FAMILY,https://photos.zillowstatic.com/fp/4ab60bff74f5142be613500c776dd6ad-p_e.jpg
"1122 Lambton Dr, Oakville, ON L6J 7P3",L6J7P3,Oakville,ON,1620000.0,4.0,3.0,,,5339.8985,sqft,https://zillow.com/homedetails/1122-Lambton-Dr-Oakville-ON-L6J-7P3/2057157453_zpid/,43.49458,-79.656395,SINGLE_FAMILY,https://photos.zillowstatic.com/fp/81cdb9b7194274ead47ee7d03e6d166a-p_e.jpg
"2388 Stone Glen Cres, Oakville, ON L6M 0C7",L6M0C7,Oakville,ON,1550000.0,5.0,4.0,,,1855.4084,sqft,https://zillow.com/homedetails/2388-Stone-Glen-Cres-Oakville-ON-L6M-0C7/350177489_zpid/,43.447376,-79.75975,SINGLE_FAMILY,https://photos.zillowstatic.com/fp/83f7fb0f6a9762ea57bfe4b2492fadf2-p_e.jpg
"1528 Lancaster Dr #24, Oakville, ON L6H 2Z3",L6H2Z3,Oakville,ON,858800.0,3.0,2.0,,,,,https://zillow.com/homedetails/1528-Lancaster-Dr-24-Oakville-ON-L6H-2Z3/2062402056_zpid/,43.4816,-79.69307,TOWNHOUSE,https://photos.zillowstatic.com/fp/f039f67b6d1f11ff0d1552c78d94d359-p_e.jpg
"123 Otter Cres, Oakville, ON L6H 1E7",L6H1E7,Oakville,ON,1149000.0,4.0,2.0,,,0.12,sqft,https://zillow.com/homedetails/123-Otter-Cres-Oakville-ON-L6H-1E7/448827124_zpid/,43.455463,-79.704414,SINGLE_FAMILY,https://photos.zillowstatic.com/fp/04f65280a1ef9b16b56131d3214ac5eb-p_e.jpg
"1292 Creekside Dr, Oakville, ON L6H 4Y5",L6H4Y5,Oakville,ON,2088000.0,4.0,5.0,,,5122.5622,sqft,https://zillow.com/homedetails/1292-Creekside-Dr-Oakville-ON-L6H-4Y5/448967927_zpid/,43.489506,-79.68871,SINGLE_FAMILY,https://photos.zillowstatic.com/fp/8cd790e4bb9f86df5831b46e7e1ce264-p_e.jpg
"584 4th Line, Oakville, ON L6L 5A7",L6L5A7,Oakville,ON,4498000.0,5.0,5.0,,,0.3754820936639118,acres,https://zillow.com/homedetails/584-4th-Line-Oakville-ON-L6L-5A7/2062581087_zpid/,43.431816,-79.70011,SINGLE_FAMILY,https://photos.zillowstatic.com/fp/97493454bbe32a1cbdd7e1e8826631ce-p_e.jpg
"1444 6th Line #25, Oakville, ON L6H 1X7",L6H1X7,Oakville,ON,779000.0,3.0,2.0,,,,,https://zillow.com/homedetails/1444-6th-Line-25-Oakville-ON-L6H-1X7/2067597311_zpid/,43.463135,-79.70858,TOWNHOUSE,https://photos.zillowstatic.com/fp/978f641c003378956cbe33fd28f5cff1-p_e.jpg
"577 Trudale Ct, Oakville, ON L6L 4H2",L6L4H2,Oakville,ON,1399000.0,4.0,2.0,,,7707.35,sqft,https://zillow.com/homedetails/577-Trudale-Ct-Oakville-ON-L6L-4H2/2063471978_zpid/,43.419033,-79.712685,SINGLE_FAMILY,https://photos.zillowstatic.com/fp/6e65dfef2ec07295d96c6ef4de0f55a8-p_e.jpg
"2385 Sequoia Way, Oakville, ON L6M 4V5",L6M4V5,Oakville,ON,1599900.0,4.0,4.0,2426.0,659.48,3926.7638,sqft,https://zillow.com/homedetails/2385-Sequoia-Way-Oakville-ON-L6M-4V5/441734259_zpid/,43.43189,-79.76569,SINGLE_FAMILY,https://photos.zillowstatic.com/fp/f2bdb6540dd04827b472c99c0a3e15c2-p_e.jpg
"483 Manhattan Cmn, Oakville, ON L6H 3P6",L6H3P6,Oakville,ON,999900.0,4.0,3.0,,,1447.4362,sqft,https://zillow.com/homedetails/483-Manhattan-Cmn-Oakville-ON-L6H-3P6/446678267_zpid/,43.493393,-79.71452,TOWNHOUSE,https://photos.zillowstatic.com/fp/d4ebb32591645df6067c8f873f873d73-p_e.jpg
"168 Nelson St, Oakville, ON L6L 3J2",L6L3J2,Oakville,ON,2988000.0,5.0,5.0,,,8625.0,sqft,https://zillow.com/homedetails/168-Nelson-St-Oakville-ON-L6L-3J2/2086471523_zpid/,43.398277,-79.71052,SINGLE_FAMILY,https://photos.zillowstatic.com/fp/0fe4835346ef490cab6b1355c5b0a6a4-p_e.jpg
"1259 Sprucelea Dr, Oakville, ON L6J 2E7",L6J2E7,Oakville,ON,5680000.0,5.0,5.0,,,0.3975206611570248,acres,https://zillow.com/homedetails/1259-Sprucelea-Dr-Oakville-ON-L6J-2E7/448823009_zpid/,43.467354,-79.65971,SINGLE_FAMILY,https://photos.zillowstatic.com/fp/e1db582d661816dbfe4275c8d6a6a1b6-p_e.jpg
"66 Worthington Dr, Oakville, ON L6L 1C9",L6L1C9,Oakville,ON,659900.0,3.0,3.0,,,,,https://zillow.com/homedetails/66-Worthington-Dr-Oakville-ON-L6L-1C9/448648819_zpid/,43.402668,-79.69934,TOWNHOUSE,https://photos.zillowstatic.com/fp/c4d9dc4268a9939e0003f4375b4a362c-p_e.jpg
"3352 Petrie Way, Oakville, ON L6L 6V8",L6L6V8,Oakville,ON,2749000.0,6.0,5.0,,,5104.8445,sqft,https://zillow.com/homedetails/3352-Petrie-Way-Oakville-ON-L6L-6V8/449353294_zpid/,43.378586,-79.71958,SINGLE_FAMILY,https://photos.zillowstatic.com/fp/36849f3f2398defe20f598f67bf86338-p_e.jpg
"1621 Bayshire Dr, Oakville, ON L6H 6E4",L6H6E4,Oakville,ON,2350000.0,5.0,4.0,2984.0,787.53,5174.4315,sqft,https://zillow.com/homedetails/1621-Bayshire-Dr-Oakville-ON-L6H-6E4/2065062600_zpid/,43.491318,-79.68614,SINGLE_FAMILY,https://photos.zillowstatic.com/fp/fd660433223e0302c55082b5be75649d-p_e.jpg
"2263 Marine Dr #1505, Oakville, ON L6L 5K1",L6L5K1,Oakville,ON,579900.0,3.0,1.0,964.0,601.56,,,https://zillow.com/homedetails/2263-Marine-Dr-1505-Oakville-ON-L6L-5K1/439158195_zpid/,43.39841,-79.70519,CONDO,https://photos.zillowstatic.com/fp/4e83313760676d074df8a3d07f76c40d-p_e.jpg
"225 William St, Oakville, ON L6J 1E1",L6J1E1,Oakville,ON,4548800.0,5.0,4.0,,,10099.144,sqft,https://zillow.com/homedetails/225-William-St-Oakville-ON-L6J-1E1/2063912745_zpid/,43.445312,-79.666306,SINGLE_FAMILY,https://photos.zillowstatic.com/fp/0e1ee8184b8702b1f9343a7e13b6de2b-p_e.jpg
"41 Cudmore Rd, Oakville, ON L6L 2Y4",L6L2Y4,Oakville,ON,4799999.0,5.0,6.0,,,0.2640036730945821,acres,https://zillow.com/homedetails/41-Cudmore-Rd-Oakville-ON-L6L-2Y4/2084516456_zpid/,43.385494,-79.71509,SINGLE_FAMILY,https://photos.zillowstatic.com/fp/82bb25a327a8aa53f101df1d13e8f164-p_e.jpg
"2067 Granby Dr, Oakville, ON L6H 3X9",L6H3X9,Oakville,ON,1699000.0,5.0,4.0,,,5835.8151,sqft,https://zillow.com/homedetails/2067-Granby-Dr-Oakville-ON-L6H-3X9/449338694_zpid/,43.480675,-79.69919,SINGLE_FAMILY,https://photos.zillowstatic.com/fp/7f26d5dbeb981c71bd58371771283983-p_e.jpg
"554 Swann Dr, Oakville, ON L6L 3X1",L6L3X1,Oakville,ON,2549900.0,5.0,5.0,,,7652.6008,sqft,https://zillow.com/homedetails/554-Swann-Dr-Oakville-ON-L6L-3X1/2063788127_zpid/,43.41596,-79.7157,SINGLE_FAMILY,https://photos.zillowstatic.com/fp/c436872c8206a520d5890e1f33488e5c-p_e.jpg
"20 Speers Rd #508, Oakville, ON L6K 3R5",L6K3R5,Oakville,ON,574900.0,3.0,2.0,,,,,https://zillow.com/homedetails/20-Speers-Rd-508-Oakville-ON-L6K-3R5/2063759732_zpid/,43.4486,-79.68555,APARTMENT,https://photos.zillowstatic.com/fp/a75aa3013339615420d3bf0355edf12c-p_e.jpg
"2153 Meadowglen Dr, Oakville, ON L6M 4C9",L6M4C9,Oakville,ON,1495000.0,3.0,3.0,,,6208.8119,sqft,https://zillow.com/homedetails/2153-Meadowglen-Dr-Oakville-ON-L6M-4C9/2060710381_zpid/,43.439545,-79.75587,SINGLE_FAMILY,https://photos.zillowstatic.com/fp/249ee4fc80420eda5ba2e370c36aeadd-p_e.jpg
"331 Macdonald Rd, Oakville, ON L6J 2A6",L6J2A6,Oakville,ON,4595000.0,5.0,5.0,3113.0,1476.07,7418.0254,sqft,https://zillow.com/homedetails/331-Macdonald-Rd-Oakville-ON-L6J-2A6/349779795_zpid/,43.45462,-79.674995,SINGLE_FAMILY,https://photos.zillowstatic.com/fp/7f733aa9551b1365e3a2508188162a7f-p_e.jpg
"3173 Millicent Ave, Oakville, ON L6H 0V2",L6H0V2,Oakville,ON,1999999.0,4.0,4.0,3029.0,660.28,3421.594,sqft,https://zillow.com/homedetails/3173-Millicent-Ave-Oakville-ON-L6H-0V2/2055948932_zpid/,43.485294,-79.733116,SINGLE_FAMILY,https://photos.zillowstatic.com/fp/a8b8dd969b72890bf9ec56240b68470d-p_e.jpg
"1016 Falgarwood Dr #40, Oakville, ON L6H 2P5",L6H2P5,Oakville,ON,559000.0,3.0,2.0,,,,,https://zillow.com/homedetails/1016-Falgarwood-Dr-40-Oakville-ON-L6H-2P5/2072897239_zpid/,43.472397,-79.682785,TOWNHOUSE,https://photos.zillowstatic.com/fp/4e60d16c9a6cddecb7f32d2aec793444-p_e.jpg
"2254 Rockingham Dr #5, Oakville, ON L6H 7H8",L6H7H8,Oakville,ON,1524900.0,4.0,4.0,,,,,https://zillow.com/homedetails/2254-Rockingham-Dr-5-Oakville-ON-L6H-7H8/366595878_zpid/,43.496326,-79.69386,TOWNHOUSE,https://photos.zillowstatic.com/fp/48bd6f60811a8f7e685db62c31f59d1e-p_e.jpg
"2280 Owlridge Dr, Oakville, ON L6M 3S9",L6M3S9,Oakville,ON,1349900.0,4.0,3.0,2064.0,654.02,3366.7153,sqft,https://zillow.com/homedetails/2280-Owlridge-Dr-Oakville-ON-L6M-3S9/449000427_zpid/,43.451073,-79.74246,SINGLE_FAMILY,https://photos.zillowstatic.com/fp/79e6740329236f568f95e5a595f5e920-p_e.jpg
"2108 Devon Rd, Oakville, ON L6J 2N2",L6J2N2,Oakville,ON,5970000.0,5.0,6.0,,,0.2552536845730028,acres,https://zillow.com/homedetails/2108-Devon-Rd-Oakville-ON-L6J-2N2/444453630_zpid/,43.47867,-79.64949,SINGLE_FAMILY,https://photos.zillowstatic.com/fp/f47ce4ee7e5eff25844e81afe7f2d0fc-p_e.jpg
"1362 Sedgewick Cres, Oakville, ON L6L 1X8",L6L1X8,Oakville,ON,4988800.0,6.0,8.0,,,0.2625065656565656,acres,https://zillow.com/homedetails/1362-Sedgewick-Cres-Oakville-ON-L6L-1X8/2063211441_zpid/,43.413906,-79.69991,SINGLE_FAMILY,https://photos.zillowstatic.com/fp/5bcdbe6f67aa76523154658858de3a61-p_e.jpg
"2384 Rock Point Dr, Oakville, ON L6H 7V3",L6H7V3,Oakville,ON,2680000.0,4.0,5.0,,,5635.0,sqft,https://zillow.com/homedetails/2384-Rock-Point-Dr-Oakville-ON-L6H-7V3/2061534716_zpid/,43.501625,-79.69397,SINGLE_FAMILY,https://photos.zillowstatic.com/fp/fc150cda0d7ece456fddfba66bcab2d5-p_e.jpg
"1230 Marlborough Ct #210, Oakville, ON L6H 3K6",L6H3K6,Oakville,ON,699000.0,3.0,3.0,1771.0,394.69,,,https://zillow.com/homedetails/1230-Marlborough-Ct-210-Oakville-ON-L6H-3K6/447292699_zpid/,43.466934,-79.69155,CONDO,https://photos.zillowstatic.com/fp/7d1a6d23e6590511231844c25f41dc96-p_e.jpg
"1106 Falgarwood Dr, Oakville, ON L6H 1N9",L6H1N9,Oakville,ON,1649000.0,3.0,2.0,1356.0,1216.08,0.2736625344352617,acres,https://zillow.com/homedetails/1106-Falgarwood-Dr-Oakville-ON-L6H-1N9/444774744_zpid/,43.475605,-79.68099,SINGLE_FAMILY,https://photos.zillowstatic.com/fp/74c95ae5666366b4ff90d15a4b214998-p_e.jpg
"48 Pike Rd, Oakville, ON L6H 6C3",L6H6C3,Oakville,ON,1939000.0,5.0,4.0,,,7659.0,sqft,https://zillow.com/homedetails/48-Pike-Rd-Oakville-ON-L6H-6C3/448852934_zpid/,43.47551,-79.72734,SINGLE_FAMILY,https://photos.zillowstatic.com/fp/96cf40e7a34671c53f3fbf16b6bf471f-p_e.jpg
"2088 Saxon Rd, Oakville, ON L6L 2V2",L6L2V2,Oakville,ON,2249000.0,4.0,3.0,2412.0,932.42,5250.8417,sqft,https://zillow.com/homedetails/2088-Saxon-Rd-Oakville-ON-L6L-2V2/449015950_zpid/,43.41454,-79.71758,SINGLE_FAMILY,https://photos.zillowstatic.com/fp/030a7d7d8828c3421eccdb69ed79d137-p_e.jpg
"450 Levanna Ln, Oakville, ON L6H 6B9",L6H6B9,Oakville,ON,1199999.0,4.0,4.0,,,3390.9299,sqft,https://zillow.com/homedetails/450-Levanna-Ln-Oakville-ON-L6H-6B9/2061294490_zpid/,43.461926,-79.734764,SINGLE_FAMILY,https://photos.zillowstatic.com/fp/281142f38eb8db3d51a74a9b8b4f5fc2-p_e.jpg
"2110 Blyth Cres, Oakville, ON L6J 5H6",L6J5H6,Oakville,ON,7250000.0,6.0,8.0,,,0.3453634527089072,acres,https://zillow.com/homedetails/2110-Blyth-Cres-Oakville-ON-L6J-5H6/2072238831_zpid/,43.47211,-79.64063,SINGLE_FAMILY,https://photos.zillowstatic.com/fp/1c87d11a4f338894b3cfaed951ef576e-p_e.jpg
"1551 Warland Rd, Oakville, ON L6L 1N4",L6L1N4,Oakville,ON,5098000.0,4.0,5.0,,,0.273,sqft,https://zillow.com/homedetails/1551-Warland-Rd-Oakville-ON-L6L-1N4/2063765064_zpid/,43.407356,-79.69802,SINGLE_FAMILY,https://photos.zillowstatic.com/fp/f008bba6acd6bb0db7dacf001198630d-p_e.jpg
"21 Chisholm St, Oakville, ON L6K 3W2",L6K3W2,Oakville,ON,3500000.0,4.0,5.0,,,2962.6,sqft,https://zillow.com/homedetails/21-Chisholm-St-Oakville-ON-L6K-3W2/448383625_zpid/,43.43981,-79.669655,TOWNHOUSE,https://photos.zillowstatic.com/fp/c05fb48faeabc1b85ad0d6f7c82a5cde-p_e.jpg
"55 Stewart St, Oakville, ON L6K 1X6",L6K1X6,Oakville,ON,850000.0,3.0,1.0,994.0,855.13,4640.0,sqft,https://zillow.com/homedetails/55-Stewart-St-Oakville-ON-L6K-1X6/440008936_zpid/,43.4455,-79.68242,SINGLE_FAMILY,https://photos.zillowstatic.com/fp/f32757b444e4ca8a0f2e298bed8ab333-p_e.jpg
"2048 Ardleigh Rd, Oakville, ON L6J 1V6",L6J1V6,Oakville,ON,6499000.0,5.0,6.0,,,0.3788223140495868,acres,https://zillow.com/homedetails/2048-Ardleigh-Rd-Oakville-ON-L6J-1V6/2076624399_zpid/,43.472206,-79.64468,SINGLE_FAMILY,https://photos.zillowstatic.com/fp/81342c956bf87e202a6b028927098242-p_e.jpg
"2120 Brookhaven Cres, Oakville, ON L6M 5B8",L6M5B8,Oakville,ON,1429900.0,4.0,3.0,,,2988.0,sqft,https://zillow.com/homedetails/2120-Brookhaven-Cres-Oakville-ON-L6M-5B8/2063863106_zpid/,43.43698,-79.75431,SINGLE_FAMILY,https://photos.zillowstatic.com/fp/fc318ccc9943fc368d1e8644053e1470-p_e.jpg
"3500 Lakeshore Rd W #501, Oakville, ON L6L 0B4",L6L0B4,Oakville,ON,1329000.0,2.0,2.0,,,,,https://zillow.com/homedetails/3500-Lakeshore-Rd-W-501-Oakville-ON-L6L-0B4/446799948_zpid/,43.373775,-79.72125,APARTMENT,https://photos.zillowstatic.com/fp/457ba0fc87a27fcfe075eecbdd943696-p_e.jpg
"2356 Charles Cornwall Ave, Oakville, ON L6M 5M6",L6M5M6,Oakville,ON,2695000.0,4.0,5.0,3609.0,746.74,4060.8022,sqft,https://zillow.com/homedetails/2356-Charles-Cornwall-Ave-Oakville-ON-L6M-5M6/399309290_zpid/,43.419582,-79.74292,SINGLE_FAMILY,https://photos.zillowstatic.com/fp/6cd96a763e73aa677dc9e23b5686194d-p_e.jpg
"16 Arkendo Dr, Oakville, ON L6J 5T9",L6J5T9,Oakville,ON,3999900.0,4.0,3.0,,,6000.0,sqft,https://zillow.com/homedetails/16-Arkendo-Dr-Oakville-ON-L6J-5T9/2075816645_zpid/,43.480503,-79.62611,SINGLE_FAMILY,https://photos.zillowstatic.com/fp/d1598e469a0407b34d57dc60c906a874-p_e.jpg
"193 Lakewood Dr, Oakville, ON L6K 1B3",L6K1B3,Oakville,ON,3150000.0,5.0,4.0,,,9030.0,sqft,https://zillow.com/homedetails/193-Lakewood-Dr-Oakville-ON-L6K-1B3/449325889_zpid/,43.436085,-79.676414,SINGLE_FAMILY,https://photos.zillowstatic.com/fp/2becc0dae190fa935d5db708cae447e2-p_e.jpg
"1450 Bishops Gate #106, Oakville, ON L6M 4N1",L6M4N1,Oakville,ON,399000.0,2.0,1.0,,,,,https://zillow.com/homedetails/1450-Bishops-Gate-106-Oakville-ON-L6M-4N1/439271495_zpid/,43.43888,-79.73755,APARTMENT,https://photos.zillowstatic.com/fp/efcfbe96384093f4529b4519a68befcb-p_e.jpg
"229 Hanover St, Oakville, ON L6K 0G9",L6K0G9,Oakville,ON,2749999.0,4.0,5.0,,,0.037,sqft,https://zillow.com/homedetails/229-Hanover-St-Oakville-ON-L6K-0G9/2063406552_zpid/,43.436516,-79.682846,TOWNHOUSE,https://photos.zillowstatic.com/fp/3e33bb75cdb83612984b358d515712db-p_e.jpg
"1665 Glenvista Dr, Oakville, ON L6H 6K6",L6H6K6,Oakville,ON,2299990.0,5.0,4.0,,,5892.8975,sqft,https://zillow.com/homedetails/1665-Glenvista-Dr-Oakville-ON-L6H-6K6/2056015048_zpid/,43.491512,-79.68799,SINGLE_FAMILY,https://photos.zillowstatic.com/fp/79cfbedc2f749e14b486f4f83bc94580-p_e.jpg
"2396 Spring Meadow Way, Oakville, ON L6M 0R6",L6M0R6,Oakville,ON,2099999.0,4.0,5.0,,,3784.0875,sqft,https://zillow.com/homedetails/2396-Spring-Meadow-Way-Oakville-ON-L6M-0R6/440904036_zpid/,43.435196,-79.76831,SINGLE_FAMILY,https://photos.zillowstatic.com/fp/31b4a3680270c134d25479ff37f955b5-p_e.jpg
"2301 Charles Cornwall Ave, Oakville, ON L6M 5M6",L6M5M6,Oakville,ON,2899900.0,4.0,5.0,3714.0,780.8,4060.8022,sqft,https://zillow.com/homedetails/2301-Charles-Cornwall-Ave-Oakville-ON-L6M-5M6/443839648_zpid/,43.42066,-79.74313,SINGLE_FAMILY,https://photos.zillowstatic.com/fp/7ae3c4d8b8d7d5ea2627d219cea612a6-p_e.jpg
"297 Oak Walk Dr #2010, Oakville, ON L6H 3R6",L6H3R6,Oakville,ON,620000.0,2.0,2.0,840.0,738.1,,,https://zillow.com/homedetails/297-Oak-Walk-Dr-2010-Oakville-ON-L6H-3R6/2057568720_zpid/,43.485855,-79.71835,CONDO,https://photos.zillowstatic.com/fp/82eb894ee0276e933c562c9d6d667f22-p_e.jpg
"2329 Saddlecreek Cres, Oakville, ON L6M 5J7",L6M5J7,Oakville,ON,969000.0,3.0,3.0,1560.0,621.15,1477.1152,sqft,https://zillow.com/homedetails/2329-Saddlecreek-Cres-Oakville-ON-L6M-5J7/448255862_zpid/,43.441425,-79.769005,TOWNHOUSE,https://photos.zillowstatic.com/fp/eb6024cdd96ca9130a2b565555e09ae1-p_e.jpg
"108 Glenashton Dr, Oakville, ON L6H 6G3",L6H6G3,Oakville,ON,949900.0,4.0,3.0,,,1762.7376,sqft,https://zillow.com/homedetails/108-Glenashton-Dr-Oakville-ON-L6H-6G3/446557879_zpid/,43.47623,-79.72003,TOWNHOUSE,https://photos.zillowstatic.com/fp/35233fae84f737e3f90ebf3d60b492b0-p_e.jpg
"1172 Kelsey Ct #1, Oakville, ON L6H 5E3",L6H5E3,Oakville,ON,875888.0,3.0,2.0,,,,,https://zillow.com/homedetails/1172-Kelsey-Ct-1-Oakville-ON-L6H-5E3/2071552076_zpid/,43.46441,-79.699875,TOWNHOUSE,https://photos.zillowstatic.com/fp/4120cd7656fab59b164e3642bb5fb3e6-p_e.jpg
"220 Overton Pl, Oakville, ON L6H 1E9",L6H1E9,Oakville,ON,1448888.0,4.0,2.0,,,6000.0,sqft,https://zillow.com/homedetails/220-Overton-Pl-Oakville-ON-L6H-1E9/442645138_zpid/,43.453377,-79.707794,SINGLE_FAMILY,https://photos.zillowstatic.com/fp/da49715595384a290dfd1b9b84afa5bb-p_e.jpg
"2212 Urwin Cres, Oakville, ON L6L 2T2",L6L2T2,Oakville,ON,2588000.0,5.0,6.0,,,6074.9538,sqft,https://zillow.com/homedetails/2212-Urwin-Cres-Oakville-ON-L6L-2T2/2064085778_zpid/,43.409542,-79.719894,SINGLE_FAMILY,https://photos.zillowstatic.com/fp/538454a572fe268fec10460bc4c8a4af-p_e.jpg
"1515 Burloak Dr, Oakville, ON L6M 4J7",L6M4J7,Oakville,ON,1199000.0,4.0,1.0,,,0.52,sqft,https://zillow.com/homedetails/1515-Burloak-Dr-Oakville-ON-L6M-4J7/449349992_zpid/,43.407692,-79.77299,SINGLE_FAMILY,https://photos.zillowstatic.com/fp/8df7693aa4cb380bfd8a15efd6824e13-p_e.jpg
"2185 Meadowland Dr, Oakville, ON L6H 6H2",L6H6H2,Oakville,ON,2399000.0,5.0,4.0,3000.0,799.67,5732.111,sqft,https://zillow.com/homedetails/2185-Meadowland-Dr-Oakville-ON-L6H-6H2/402468036_zpid/,43.476776,-79.71025,SINGLE_FAMILY,https://photos.zillowstatic.com/fp/13e8adc6acbac2a846b792bd85dd224d-p_e.jpg
"469 Dundas St E, Oakville, ON L6H 3P4",L6H3P4,Oakville,ON,1249999.0,4.0,4.0,,,1874.95,sqft,https://zillow.com/homedetails/469-Dundas-St-E-Oakville-ON-L6H-3P4/2056379149_zpid/,43.491993,-79.71558,TOWNHOUSE,https://photos.zillowstatic.com/fp/ac2024e8bcc1ccae5d47acdbfd84a658-p_e.jpg
"1181 Newton Rd, Oakville, ON L6H 2A1",L6H2A1,Oakville,ON,1585000.0,5.0,2.0,1225.0,1293.88,8052.1537,sqft,https://zillow.com/homedetails/1181-Newton-Rd-Oakville-ON-L6H-2A1/2077673891_zpid/,43.461212,-79.69496,SINGLE_FAMILY,https://photos.zillowstatic.com/fp/fba561403c9c12d511b8a54c846ca0b0-p_e.jpg
"75 Orchardcroft Rd, Oakville, ON L6H 0M6",L6H0M6,Oakville,ON,1349900.0,4.0,3.0,2330.0,579.36,2569.342,sqft,https://zillow.com/homedetails/75-Orchardcroft-Rd-Oakville-ON-L6H-0M6/2055313214_zpid/,43.483704,-79.72809,TOWNHOUSE,https://photos.zillowstatic.com/fp/83b63e6d4383bb67b4b6754f70dd14c6-p_e.jpg
"1052 Melvin Ave, Oakville, ON L6J 2V9",L6J2V9,Oakville,ON,5250000.0,6.0,7.0,,,0.2582644628099173,acres,https://zillow.com/homedetails/1052-Melvin-Ave-Oakville-ON-L6J-2V9/442395672_zpid/,43.46518,-79.67063,SINGLE_FAMILY,https://photos.zillowstatic.com/fp/cb256568b7096c3d79369fe43080d34a-p_e.jpg
"2192 Margot St, Oakville, ON L6H 3M1",L6H3M1,Oakville,ON,1339900.0,4.0,3.0,,,3722.42,sqft,https://zillow.com/homedetails/2192-Margot-St-Oakville-ON-L6H-3M1/2064329392_zpid/,43.46753,-79.72126,SINGLE_FAMILY,https://photos.zillowstatic.com/fp/fc44498e3634112ddf0fa48800109397-p_e.jpg
"2082 Bridge Rd, Oakville, ON L6L 2E9",L6L2E9,Oakville,ON,3199999.0,5.0,6.0,,,7405.2,sqft,https://zillow.com/homedetails/2082-Bridge-Rd-Oakville-ON-L6L-2E9/2070935507_zpid/,43.41289,-79.71498,SINGLE_FAMILY,https://photos.zillowstatic.com/fp/46b40c7d84047acfc0ed516ff3b4c8db-p_e.jpg
"2086 Lakeshore Rd W, Oakville, ON L6L 1G8",L6L1G8,Oakville,ON,789900.0,3.0,3.0,,,,,https://zillow.com/homedetails/2086-Lakeshore-Rd-W-Oakville-ON-L6L-1G8/448298746_zpid/,43.4026,-79.70127,TOWNHOUSE,https://photos.zillowstatic.com/fp/ab879af24382664957c1cc0123d47bef-p_e.jpg
"3173 Sunflower Dr, Oakville, ON L6M 0Z4",L6M0Z4,Oakville,ON,2389000.0,6.0,5.0,,,376.75,sqft,https://zillow.com/homedetails/3173-Sunflower-Dr-Oakville-ON-L6M-0Z4/449379007_zpid/,43.47168,-79.746925,SINGLE_FAMILY,https://photos.zillowstatic.com/fp/299ee5fb6ac7d3abb90ff2582f9263da-p_e.jpg
"455 Samford Pl, Oakville, ON L6L 4E7",L6L4E7,Oakville,ON,2999000.0,6.0,6.0,,,7475.0,sqft,https://zillow.com/homedetails/455-Samford-Pl-Oakville-ON-L6L-4E7/2084688072_zpid/,43.415173,-79.71064,SINGLE_FAMILY,https://photos.zillowstatic.com/fp/7ea12a4e489e891a3e43e187dcc8890a-p_e.jpg
"382 Trafalgar Rd, Oakville, ON L6J 3H5",L6J3H5,Oakville,ON,4200000.0,4.0,4.0,1855.0,2264.15,0.3024752525252525,acres,https://zillow.com/homedetails/382-Trafalgar-Rd-Oakville-ON-L6J-3H5/2063748291_zpid/,43.452892,-79.67749,SINGLE_FAMILY,https://photos.zillowstatic.com/fp/1b78b679655f2e2ea7713733f618f556-p_e.jpg
"2457 Ventura Dr, Oakville, ON L6L 2H5",L6L2H5,Oakville,ON,2980000.0,6.0,7.0,,,7525.0,sqft,https://zillow.com/homedetails/2457-Ventura-Dr-Oakville-ON-L6L-2H5/448644147_zpid/,43.40179,-79.72127,SINGLE_FAMILY,https://photos.zillowstatic.com/fp/bf833c9e455ca9e64164cbb2bc4638a2-p_e.jpg
"1230 Marlborough Ct #406, Oakville, ON L6H 3K6",L6H3K6,Oakville,ON,569990.0,2.0,2.0,1207.0,472.24,,,https://zillow.com/homedetails/1230-Marlborough-Ct-406-Oakville-ON-L6H-3K6/448635277_zpid/,43.466793,-79.69132,CONDO,https://photos.zillowstatic.com/fp/0361f4668a947d673c47362b051cc504-p_e.jpg
"21 2nd St, Oakville, ON L6J 3T1",L6J3T1,Oakville,ON,4999000.0,3.0,2.0,,,0.2686762534435261,acres,https://zillow.com/homedetails/21-2nd-St-Oakville-ON-L6J-3T1/2059969269_zpid/,43.44911,-79.65982,SINGLE_FAMILY,https://photos.zillowstatic.com/fp/d2491f7825c8abece8f2e73f71057e01-p_e.jpg
"12 Washington Ave, Oakville, ON L6K 1W6",L6K1W6,Oakville,ON,1398000.0,3.0,2.0,,,4928.0,sqft,https://zillow.com/homedetails/12-Washington-Ave-Oakville-ON-L6K-1W6/2072105250_zpid/,43.446,-79.679924,SINGLE_FAMILY,https://photos.zillowstatic.com/fp/b6488c3102a06c5db9bf508a247a2b19-p_e.jpg
"557 Settlers Rd W, Oakville, ON L6M 1N7",L6M1N7,Oakville,ON,1349900.0,4.0,4.0,2016.0,669.59,1838.3992,sqft,https://zillow.com/homedetails/557-Settlers-Rd-W-Oakville-ON-L6M-1N7/440259856_zpid/,43.477703,-79.76022,SINGLE_FAMILY,https://photos.zillowstatic.com/fp/bb82891c36ad827c1d0af98c792df05d-p_e.jpg
"1534 Heritage Way, Oakville, ON L6M 2Z7",L6M2Z7,Oakville,ON,1799000.0,4.0,3.0,,,7073.4146,sqft,https://zillow.com/homedetails/1534-Heritage-Way-Oakville-ON-L6M-2Z7/348984775_zpid/,43.43081,-79.74634,SINGLE_FAMILY,https://photos.zillowstatic.com/fp/283942414f0d94e3094af3776d5ab30d-p_e.jpg
"1325 Rebecca St, Oakville, ON L6L 1Z3",L6L1Z3,Oakville,ON,3788800.0,5.0,7.0,4400.0,861.09,,,https://zillow.com/homedetails/1325-Rebecca-St-Oakville-ON-L6L-1Z3/2060637803_zpid/,43.415855,-79.70107,SINGLE_FAMILY,https://photos.zillowstatic.com/fp/fdf7800f9443843b50fff5b9ad29cbd9-p_e.jpg
"194 Zachary Cres, Oakville, ON L6H 0W2",L6H0W2,Oakville,ON,1499000.0,4.0,4.0,,,3067.388,sqft,https://zillow.com/homedetails/194-Zachary-Cres-Oakville-ON-L6H-0W2/448640848_zpid/,43.489193,-79.73466,SINGLE_FAMILY,https://photos.zillowstatic.com/fp/5a4c37db76b4285e6451e3c8338d042a-p_e.jpg
"1453 Seagram Ave, Oakville, ON L6L 1W9",L6L1W9,Oakville,ON,5388888.0,5.0,6.0,,,0.2601756198347107,acres,https://zillow.com/homedetails/1453-Seagram-Ave-Oakville-ON-L6L-1W9/448919977_zpid/,43.411312,-79.70223,SINGLE_FAMILY,https://photos.zillowstatic.com/fp/f9fa01d1bc81e829495a6f4f782787c8-p_e.jpg
"480 Silver Maple Rd, Oakville, ON L6H 3P6",L6H3P6,Oakville,ON,999999.0,3.0,3.0,1803.0,554.63,1213.2,sqft,https://zillow.com/homedetails/480-Silver-Maple-Rd-Oakville-ON-L6H-3P6/447927934_zpid/,43.4935,-79.714836,TOWNHOUSE,https://photos.zillowstatic.com/fp/ca31decf1824464c8e091e3db4e8c16c-p_e.jpg
"2354 Salcome Dr, Oakville, ON L6H 7N3",L6H7N3,Oakville,ON,3288888.0,4.0,4.0,3200.0,1027.78,3714.8722,sqft,https://zillow.com/homedetails/2354-Salcome-Dr-Oakville-ON-L6H-7N3/443633860_zpid/,43.49257,-79.705086,SINGLE_FAMILY,https://photos.zillowstatic.com/fp/f03bcdcbb5beaa966ebe79d77c433397-p_e.jpg
"257 Surrey Dr, Oakville, ON L6L 3T6",L6L3T6,Oakville,ON,3499000.0,5.0,5.0,3785.0,924.44,4538.3664,sqft,https://zillow.com/homedetails/257-Surrey-Dr-Oakville-ON-L6L-3T6/400928936_zpid/,43.40632,-79.70831,SINGLE_FAMILY,https://photos.zillowstatic.com/fp/4cacb9c16d7f8fe631e279a6da665383-p_e.jpg
"2351 Lakeshore Rd W #4, Oakville, ON L6L 1H4",L6L1H4,Oakville,ON,1449000.0,3.0,3.0,,,2139.62,sqft,https://zillow.com/homedetails/2351-Lakeshore-Rd-W-4-Oakville-ON-L6L-1H4/449427777_zpid/,43.397163,-79.709206,TOWNHOUSE,https://photos.zillowstatic.com/fp/2fe0051dd16a860932c07ea846b06fc4-p_e.jpg
"2035 Shady Glen Rd, Oakville, ON L6M 3R1",L6M3R1,Oakville,ON,1629000.0,5.0,4.0,,,3846.25,sqft,https://zillow.com/homedetails/2035-Shady-Glen-Rd-Oakville-ON-L6M-3R1/448429825_zpid/,43.439537,-79.748215,SINGLE_FAMILY,https://photos.zillowstatic.com/fp/f6f3e2a5aba5c8196dd94ede166cb19d-p_e.jpg
"2233 Falling Green Dr, Oakville, ON L6M 5A2",L6M5A2,Oakville,ON,1799900.0,5.0,4.0,,,4197.459,sqft,https://zillow.com/homedetails/2233-Falling-Green-Dr-Oakville-ON-L6M-5A2/2063782359_zpid/,43.437706,-79.76236,SINGLE_FAMILY,https://photos.zillowstatic.com/fp/560b645dbac5d491029d278c3004af12-p_e.jpg
"407 Trafalgar Rd, Oakville, ON L6J 3H8",L6J3H8,Oakville,ON,3199000.0,4.0,3.0,,,8699.275,sqft,https://zillow.com/homedetails/407-Trafalgar-Rd-Oakville-ON-L6J-3H8/2071266117_zpid/,43.4536,-79.67841,SINGLE_FAMILY,https://photos.zillowstatic.com/fp/b9807d35b64cc5efc843b775c64f47e6-p_e.jpg
"2292 Blue Oak Cir, Oakville, ON L6M 5J4",L6M5J4,Oakville,ON,1949000.0,5.0,5.0,,,3834.235,sqft,https://zillow.com/homedetails/2292-Blue-Oak-Cir-Oakville-ON-L6M-5J4/2077755598_zpid/,43.44012,-79.767426,SINGLE_FAMILY,https://photos.zillowstatic.com/fp/bc60524f820e8c76f4e482d0740f2525-p_e.jpg
"3110 Meadowridge Dr, Oakville, ON L6H 7P9",L6H7P9,Oakville,ON,1399900.0,4.0,4.0,,,1380.0,sqft,https://zillow.com/homedetails/3110-Meadowridge-Dr-Oakville-ON-L6H-7P9/446749144_zpid/,43.50064,-79.69889,TOWNHOUSE,https://photos.zillowstatic.com/fp/9e011f1dbe1a7eb7087d545c75661fdb-p_e.jpg
"392 Grindstone Trl, Oakville, ON L6H 0S1",L6H0S1,Oakville,ON,1449000.0,3.0,4.0,,,,,https://zillow.com/homedetails/392-Grindstone-Trl-Oakville-ON-L6H-0S1/439203746_zpid/,43.492588,-79.71814,SINGLE_FAMILY,https://photos.zillowstatic.com/fp/53fd38f03929bb9c564c1eb085bc982a-p_e.jpg
"1267 Cumnock Cres, Oakville, ON L6J 2N6",L6J2N6,Oakville,ON,7699000.0,6.0,8.0,5490.0,1402.37,0.4997933884297521,acres,https://zillow.com/homedetails/1267-Cumnock-Cres-Oakville-ON-L6J-2N6/345014349_zpid/,43.46859,-79.66258,SINGLE_FAMILY,https://photos.zillowstatic.com/fp/91309bd6d3a1ada6661420b35846ca38-p_e.jpg
"92 Sewell Dr, Oakville, ON L6H 1C5",L6H1C5,Oakville,ON,1299900.0,5.0,2.0,,,8400.0,sqft,https://zillow.com/homedetails/92-Sewell-Dr-Oakville-ON-L6H-1C5/2073151644_zpid/,43.460712,-79.69717,SINGLE_FAMILY,https://photos.zillowstatic.com/fp/c6a3959d30a3eac28b7a49d5ea436ce7-p_e.jpg
"394 Maplehurst Ave, Oakville, ON L6L 4Y6",L6L4Y6,Oakville,ON,5290900.0,6.0,7.0,,,0.2651515151515151,acres,https://zillow.com/homedetails/394-Maplehurst-Ave-Oakville-ON-L6L-4Y6/347885579_zpid/,43.425884,-79.69539,SINGLE_FAMILY,https://photos.zillowstatic.com/fp/f618245d84ccc40abdaf7f5b975015f4-p_e.jpg
"465 Dundas St E, Oakville, ON L6H 3P4",L6H3P4,Oakville,ON,1249000.0,4.0,4.0,,,1869.23,sqft,https://zillow.com/homedetails/465-Dundas-St-E-Oakville-ON-L6H-3P4/449042887_zpid/,43.49193,-79.71565,TOWNHOUSE,https://photos.zillowstatic.com/fp/215499af20a7655e036b738e3530a6a0-p_e.jpg
"384 Rebecca St, Oakville, ON L6K 1K6",L6K1K6,Oakville,ON,3200000.0,4.0,5.0,,,10036.0323,sqft,https://zillow.com/homedetails/384-Rebecca-St-Oakville-ON-L6K-1K6/448056235_zpid/,43.433186,-79.68563,SINGLE_FAMILY,https://photos.zillowstatic.com/fp/90549778b87b5b6af404815f2861fdab-p_e.jpg
"419 Sunset Dr, Oakville, ON L6L 3N3",L6L3N3,Oakville,ON,1549000.0,3.0,3.0,,,6098.4,sqft,https://zillow.com/homedetails/419-Sunset-Dr-Oakville-ON-L6L-3N3/2076344070_zpid/,43.40757,-79.71692,SINGLE_FAMILY,https://photos.zillowstatic.com/fp/9936b2feed8133121bb65cf9195eb458-p_e.jpg
"1301 Felicity Gdns, Oakville, ON L6M 5L6",L6M5L6,Oakville,ON,1998000.0,5.0,6.0,,,3745.3472,sqft,https://zillow.com/homedetails/1301-Felicity-Gdns-Oakville-ON-L6M-5L6/440352826_zpid/,43.419296,-79.74847,SINGLE_FAMILY,https://photos.zillowstatic.com/fp/e77c12fd870b688193482cb5aae8e251-p_e.jpg
"564 Stonecliffe Rd, Oakville, ON L6L 4N9",L6L4N9,Oakville,ON,3448000.0,6.0,6.0,,,0.2527958585858585,acres,https://zillow.com/homedetails/564-Stonecliffe-Rd-Oakville-ON-L6L-4N9/2064653974_zpid/,43.42538,-79.70632,SINGLE_FAMILY,https://photos.zillowstatic.com/fp/95a9a63af45f633d15c55f65d2ae0042-p_e.jpg
"2454 Rebecca St, Oakville, ON L6L 2B2",L6L2B2,Oakville,ON,2500000.0,5.0,3.0,2986.0,837.24,7200.0,sqft,https://zillow.com/homedetails/2454-Rebecca-St-Oakville-ON-L6L-2B2/2063707260_zpid/,43.398838,-79.718994,SINGLE_FAMILY,https://photos.zillowstatic.com/fp/1d34e22355e9e86962309087f03a592f-p_e.jpg
"212 Southview Rd, Oakville, ON L6K 2P4",L6K2P4,Oakville,ON,3599800.0,5.0,6.0,3830.0,939.9,9180.1602,sqft,https://zillow.com/homedetails/212-Southview-Rd-Oakville-ON-L6K-2P4/2070490903_zpid/,43.433136,-79.68847,SINGLE_FAMILY,https://photos.zillowstatic.com/fp/2f04f491804cd755dcbba18d7cc084af-p_e.jpg
"2490 Old Bronte Rd #222, Oakville, ON L6M 0Y5",L6M0Y5,Oakville,ON,449900.0,1.0,1.0,522.0,861.88,,,https://zillow.com/homedetails/2490-Old-Bronte-Rd-222-Oakville-ON-L6M-0Y5/2076345818_zpid/,43.43461,-79.77571,CONDO,https://photos.zillowstatic.com/fp/b0b72bac0d58cec6422c47ab141a61cb-p_e.jpg
"2401 Millstone Dr, Oakville, ON L6M 0K6",L6M0K6,Oakville,ON,1790000.0,5.0,4.0,2420.0,739.67,539.5005,sqft,https://zillow.com/homedetails/2401-Millstone-Dr-Oakville-ON-L6M-0K6/449036590_zpid/,43.43908,-79.77129,SINGLE_FAMILY,https://photos.zillowstatic.com/fp/4a9e3914e5699a56ce4f3ce26dd760c7-p_e.jpg
"488 Morning Dove Dr, Oakville, ON L6H 7A5",L6H7A5,Oakville,ON,2199988.0,6.0,5.0,,,3767.1786,sqft,https://zillow.com/homedetails/488-Morning-Dove-Dr-Oakville-ON-L6H-7A5/449127223_zpid/,43.491806,-79.71439,SINGLE_FAMILY,https://photos.zillowstatic.com/fp/1b9bbc9f4abc6b99d2a9f66a7db8046c-p_e.jpg
"116 Parkwood Ct, Oakville, ON L6J 7W6",L6J7W6,Oakville,ON,5200000.0,4.0,4.0,,,0.2766846464646464,acres,https://zillow.com/homedetails/116-Parkwood-Ct-Oakville-ON-L6J-7W6/448193776_zpid/,43.470104,-79.64299,SINGLE_FAMILY,https://photos.zillowstatic.com/fp/59ef3b74042eeee3b6bef0730f9dc390-p_e.jpg
"1157 Windrush Dr, Oakville, ON L6M 1T9",L6M1T9,Oakville,ON,1888900.0,6.0,4.0,,,6004.0,sqft,https://zillow.com/homedetails/1157-Windrush-Dr-Oakville-ON-L6M-1T9/2065404514_zpid/,43.439507,-79.73164,SINGLE_FAMILY,https://photos.zillowstatic.com/fp/7537e4a5fe37dea1b2ba6f85904eab0e-p_e.jpg
"56 Cameo St, Oakville, ON L6J 5Y1",L6J5Y1,Oakville,ON,3499900.0,6.0,5.0,3646.0,959.93,0.2797907988980716,acres,https://zillow.com/homedetails/56-Cameo-St-Oakville-ON-L6J-5Y1/446730458_zpid/,43.4756,-79.63405,SINGLE_FAMILY,https://photos.zillowstatic.com/fp/19ce2ce7ecea2594222d51fe9f8fdd76-p_e.jpg
"295 Maple Ave, Oakville, ON L6J 2H7",L6J2H7,Oakville,ON,3350000.0,4.0,4.0,3010.0,1112.96,8654.0,sqft,https://zillow.com/homedetails/295-Maple-Ave-Oakville-ON-L6J-2H7/449350821_zpid/,43.45519,-79.6777,SINGLE_FAMILY,https://photos.zillowstatic.com/fp/458fd26423bb113c38c5750b40f52681-p_e.jpg
"1489 Heritage Way #54, Oakville, ON L6M 4M8",L6M4M8,Oakville,ON,649999.0,2.0,2.0,,,,,https://zillow.com/homedetails/1489-Heritage-Way-54-Oakville-ON-L6M-4M8/448373285_zpid/,43.430084,-79.7455,TOWNHOUSE,https://photos.zillowstatic.com/fp/2e935d896b2311877af6a97c44d7a53e-p_e.jpg
"146 Petgor Path, Oakville, ON L6H 0Y6",L6H0Y6,Oakville,ON,1788000.0,4.0,5.0,,,3432.706,sqft,https://zillow.com/homedetails/146-Petgor-Path-Oakville-ON-L6H-0Y6/441818370_zpid/,43.491158,-79.73668,SINGLE_FAMILY,https://photos.zillowstatic.com/fp/f9a4221b7c79b86193efbad7bee0893c-p_e.jpg
"1267 Dorval Dr #65, Oakville, ON L6M 3Z4",L6M3Z4,Oakville,ON,1189000.0,3.0,3.0,2512.0,473.33,,,https://zillow.com/homedetails/1267-Dorval-Dr-65-Oakville-ON-L6M-3Z4/423000582_zpid/,43.449738,-79.7102,TOWNHOUSE,https://photos.zillowstatic.com/fp/273a1f9f7132b9e207800cc9f4fc847c-p_e.jpg
"61 Sarah Ln #26, Oakville, ON L6L 3V2",L6L3V2,Oakville,ON,799900.0,3.0,3.0,1028.0,778.11,,,https://zillow.com/homedetails/61-Sarah-Ln-26-Oakville-ON-L6L-3V2/447311879_zpid/,43.40181,-79.70049,TOWNHOUSE,https://photos.zillowstatic.com/fp/9c2b2f1d7f327f20f92655dd7ed8d5a3-p_e.jpg
"2098 Marine Dr W #3, Oakville, ON L6L 1B7",L6L1B7,Oakville,ON,1395000.0,3.0,4.0,,,,,https://zillow.com/homedetails/2098-Marine-Dr-W-3-Oakville-ON-L6L-1B7/448963689_zpid/,43.401047,-79.69979,TOWNHOUSE,https://photos.zillowstatic.com/fp/c12e1191db7199a6ec85f1df30113f7d-p_e.jpg
"372 Bartos Dr, Oakville, ON L6K 3E6",L6K3E6,Oakville,ON,1148000.0,3.0,2.0,900.0,1275.56,6534.0,sqft,https://zillow.com/homedetails/372-Bartos-Dr-Oakville-ON-L6K-3E6/448878823_zpid/,43.44608,-79.68406,SINGLE_FAMILY,https://photos.zillowstatic.com/fp/9f25c4be6c92c5ba765eb6ccb1066233-p_e.jpg
"100 Burloak Dr #1214, Burlington, ON L7L 6P6",L7L6P6,Oakville,ON,639900.0,2.0,2.0,995.0,643.12,,,https://zillow.com/homedetails/100-Burloak-Dr-1214-Burlington-ON-L7L-6P6/2063772518_zpid/,43.372467,-79.7252,CONDO,https://photos.zillowstatic.com/fp/18493cedccb9fa0ab161370f26656078-p_e.jpg
"1173 Glenashton Dr, Oakville, ON L6H 5L7",L6H5L7,Oakville,ON,1700000.0,5.0,4.0,,,5516.1088,sqft,https://zillow.com/homedetails/1173-Glenashton-Dr-Oakville-ON-L6H-5L7/446010720_zpid/,43.489662,-79.69651,SINGLE_FAMILY,https://photos.zillowstatic.com/fp/bcd6d138f7ad702a6d05b4c18963c736-p_e.jpg
"149 Dianne Ave, Oakville, ON L6J 4G8",L6J4G8,Oakville,ON,6799000.0,5.0,6.0,,,0.439,sqft,https://zillow.com/homedetails/149-Dianne-Ave-Oakville-ON-L6J-4G8/2063795208_zpid/,43.459686,-79.656105,SINGLE_FAMILY,https://photos.zillowstatic.com/fp/5132d265c3bcaa54c1d6be36cb95672b-p_e.jpg
"1349 Secord Ave, Oakville, ON L6L 2K9",L6L2K9,Oakville,ON,3988800.0,6.0,5.0,,,0.2582644628099173,acres,https://zillow.com/homedetails/1349-Secord-Ave-Oakville-ON-L6L-2K9/448206660_zpid/,43.417057,-79.70308,SINGLE_FAMILY,https://photos.zillowstatic.com/fp/6f4a78eed289c788873382fe14efee71-p_e.jpg
"2333 Sawgrass Dr #202, Oakville, ON L6H 0L2",L6H0L2,Oakville,ON,753900.0,2.0,2.0,,,,,https://zillow.com/homedetails/2333-Sawgrass-Dr-202-Oakville-ON-L6H-0L2/432541833_zpid/,43.480576,-79.71564,TOWNHOUSE,https://photos.zillowstatic.com/fp/ed09688436bd33d6622d861502f45980-p_e.jpg
"2237 Shipwright Rd, Oakville, ON L6M 3E2",L6M3E2,Oakville,ON,1288888.0,4.0,4.0,,,2677.5537,sqft,https://zillow.com/homedetails/2237-Shipwright-Rd-Oakville-ON-L6M-3E2/2071833446_zpid/,43.43003,-79.74846,TOWNHOUSE,https://photos.zillowstatic.com/fp/81c06481d577791be489c7c927bd40de-p_e.jpg
"2358 Canso Rd, Oakville, ON L6J 5W6",L6J5W6,Oakville,ON,2139000.0,4.0,4.0,1958.0,1092.44,5500.0,sqft,https://zillow.com/homedetails/2358-Canso-Rd-Oakville-ON-L6J-5W6/449121372_zpid/,43.47999,-79.634575,SINGLE_FAMILY,https://photos.zillowstatic.com/fp/9b67dece518516b9ba78f0c40bd9dee6-p_e.jpg
"3175 Lakeshore Rd W, Oakville, ON L6L 1J7",L6L1J7,Oakville,ON,2100000.0,7.0,4.0,,,0.3448864784205693,acres,https://zillow.com/homedetails/3175-Lakeshore-Rd-W-Oakville-ON-L6L-1J7/442073623_zpid/,43.38665,-79.717514,SINGLE_FAMILY,https://photos.zillowstatic.com/fp/5de6e9720079d93735dbf9f337420a70-p_e.jpg
"521 Golden Oak Dr, Oakville, ON L6H 3X6",L6H3X6,Oakville,ON,1748000.0,5.0,3.0,,,6755.63,sqft,https://zillow.com/homedetails/521-Golden-Oak-Dr-Oakville-ON-L6H-3X6/448298842_zpid/,43.479996,-79.69698,SINGLE_FAMILY,https://photos.zillowstatic.com/fp/1e1865fc0f9793c0cebd53b9b67c157e-p_e.jpg
"518 Spruce Needle Ct, Oakville, ON L6H 7L2",L6H7L2,Oakville,ON,2550000.0,5.0,5.0,,,6291.924,sqft,https://zillow.com/homedetails/518-Spruce-Needle-Ct-Oakville-ON-L6H-7L2/2063408903_zpid/,43.4852,-79.70364,SINGLE_FAMILY,https://photos.zillowstatic.com/fp/4f52f3137ce5118963c2095dc23d7c9c-p_e.jpg
"191 Deane Ave, Oakville, ON L6K 1N4",L6K1N4,Oakville,ON,1168800.0,4.0,3.0,,,0.12,sqft,https://zillow.com/homedetails/191-Deane-Ave-Oakville-ON-L6K-1N4/2063411916_zpid/,43.43968,-79.68174,SINGLE_FAMILY,https://photos.zillowstatic.com/fp/fd7046a3803d120b87b41283fc0c1158-p_e.jpg
"2483 Sunnyhurst Close, Oakville, ON L6H 7K5",L6H7K5,Oakville,ON,1979000.0,7.0,5.0,,,5005.1491,sqft,https://zillow.com/homedetails/2483-Sunnyhurst-Close-Oakville-ON-L6H-7K5/444513493_zpid/,43.472084,-79.73007,SINGLE_FAMILY,https://photos.zillowstatic.com/fp/f2a3c1a82917d31cd052aa17a5a4da8d-p_e.jpg
"3461 Mosley Gate, Oakville, ON L6H 0Z1",L6H0Z1,Oakville,ON,1795888.0,4.0,4.0,,,,,https://zillow.com/homedetails/3461-Mosley-Gate-Oakville-ON-L6H-0Z1/449581757_zpid/,43.490974,-79.74099,SINGLE_FAMILY,https://photos.zillowstatic.com/fp/a245f52ac4a31112193550126d5341ed-p_e.jpg
"288 Reynolds St #1, Oakville, ON L6J 3L4",L6J3L4,Oakville,ON,460000.0,2.0,1.0,750.0,613.33,0.421935847107438,acres,https://zillow.com/homedetails/288-Reynolds-St-1-Oakville-ON-L6J-3L4/348913079_zpid/,43.45194,-79.67279,CONDO,https://photos.zillowstatic.com/fp/808c1ce117955ccc61c78f04d28198dc-p_e.jpg
"2330 Whistling Springs Cres, Oakville, ON L6M 0C3",L6M0C3,Oakville,ON,1130000.0,3.0,4.0,1602.0,705.37,1953.252,sqft,https://zillow.com/homedetails/2330-Whistling-Springs-Cres-Oakville-ON-L6M-0C3/2073153465_zpid/,43.446514,-79.76397,TOWNHOUSE,https://photos.zillowstatic.com/fp/1c9ab65ec3c31ed7837368abf5c759a5-p_e.jpg
"411 Barclay Cres, Oakville, ON L6J 6H8",L6J6H8,Oakville,ON,2150000.0,5.0,3.0,,,7292.352,sqft,https://zillow.com/homedetails/411-Barclay-Cres-Oakville-ON-L6J-6H8/446685720_zpid/,43.48592,-79.64382,SINGLE_FAMILY,https://photos.zillowstatic.com/fp/2e7bc510325d56284720cd1dcf298173-p_e.jpg
"194 Slater Cres, Oakville, ON L6K 2C8",L6K2C8,Oakville,ON,1574900.0,3.0,3.0,,,8220.5712,sqft,https://zillow.com/homedetails/194-Slater-Cres-Oakville-ON-L6K-2C8/2059846246_zpid/,43.443176,-79.68805,SINGLE_FAMILY,https://photos.zillowstatic.com/fp/bd7a55be3e2c88c32c4571accdfdfaf2-p_e.jpg
"251 Jennings Cres, Oakville, ON L6L 1W2",L6L1W2,Oakville,ON,1499900.0,5.0,3.0,,,7536.042,sqft,https://zillow.com/homedetails/251-Jennings-Cres-Oakville-ON-L6L-1W2/2069134937_zpid/,43.40022,-79.7145,SINGLE_FAMILY,https://photos.zillowstatic.com/fp/98dc99e0b35a8bf5a441819cb01581e6-p_e.jpg
"353 Canyon Cres, Oakville, ON L6H 5T3",L6H5T3,Oakville,ON,2199900.0,4.0,4.0,3716.0,592.01,7212.2942,sqft,https://zillow.com/homedetails/353-Canyon-Cres-Oakville-ON-L6H-5T3/348624860_zpid/,43.47528,-79.70467,SINGLE_FAMILY,https://photos.zillowstatic.com/fp/080f8a181237ea58e7cc82eaf729e882-p_e.jpg
"1360 Wheelwright Rd, Oakville, ON L6M 2Z2",L6M2Z2,Oakville,ON,1789000.0,5.0,4.0,,,5905.5,sqft,https://zillow.com/homedetails/1360-Wheelwright-Rd-Oakville-ON-L6M-2Z2/449578706_zpid/,43.435574,-79.742096,SINGLE_FAMILY,https://photos.zillowstatic.com/fp/7d92b0f83be1f5b8059b19c52561a404-p_e.jpg
"177 Huguenot Rd, Oakville, ON L6H 0L4",L6H0L4,Oakville,ON,1259888.0,3.0,3.0,2010.0,626.81,1359.7752,sqft,https://zillow.com/homedetails/177-Huguenot-Rd-Oakville-ON-L6H-0L4/448320534_zpid/,43.485596,-79.72491,TOWNHOUSE,https://photos.zillowstatic.com/fp/46ab0ddc29a128b547fefde99e8a2445-p_e.jpg
"261 Gatwick Dr, Oakville, ON L6H 7K3",L6H7K3,Oakville,ON,1478000.0,4.0,4.0,,,2738.5545,sqft,https://zillow.com/homedetails/261-Gatwick-Dr-Oakville-ON-L6H-7K3/2067588522_zpid/,43.479897,-79.71364,SINGLE_FAMILY,https://photos.zillowstatic.com/fp/352eb8d4a43babc36660b93e6cdb823f-p_e.jpg
"51 Hays Blvd #1, Oakville, ON L6H 0J1",L6H0J1,Oakville,ON,589900.0,2.0,2.0,946.0,623.57,,,https://zillow.com/homedetails/51-Hays-Blvd-1-Oakville-ON-L6H-0J1/2061440001_zpid/,43.479256,-79.725075,TOWNHOUSE,https://photos.zillowstatic.com/fp/3914b58674f8e9cbbfabcf50dbc846d2-p_e.jpg
"1008 Glenbrook Ave, Oakville, ON L6H 3Z8",L6H3Z8,Oakville,ON,1769900.0,4.0,4.0,,,7249.5423,sqft,https://zillow.com/homedetails/1008-Glenbrook-Ave-Oakville-ON-L6H-3Z8/405532457_zpid/,43.482914,-79.69763,SINGLE_FAMILY,https://photos.zillowstatic.com/fp/48d17d04e97f4a0bb949ebaf51046b4f-p_e.jpg
"1336 Hillhurst Rd, Oakville, ON L6J 1X5",L6J1X5,Oakville,ON,6600000.0,5.0,7.0,,,0.3477272727272727,acres,https://zillow.com/homedetails/1336-Hillhurst-Rd-Oakville-ON-L6J-1X5/350064929_zpid/,43.466305,-79.653275,SINGLE_FAMILY,https://photos.zillowstatic.com/fp/ee2eafc401766f8cd3e5b5299e8f5987-p_e.jpg
"2497 Wyatt St, Oakville, ON L6L 2M7",L6L2M7,Oakville,ON,1589000.0,3.0,3.0,,,5940.0,sqft,https://zillow.com/homedetails/2497-Wyatt-St-Oakville-ON-L6L-2M7/434364110_zpid/,43.399574,-79.72342,SINGLE_FAMILY,https://photos.zillowstatic.com/fp/408e7b71daab2cea3fc5dfb95ac5beb8-p_e.jpg
"190 Littlewood Dr, Oakville, ON L6H 6T6",L6H6T6,Oakville,ON,1149000.0,3.0,3.0,,,2255.132,sqft,https://zillow.com/homedetails/190-Littlewood-Dr-Oakville-ON-L6H-6T6/449391399_zpid/,43.478962,-79.7161,SINGLE_FAMILY,https://photos.zillowstatic.com/fp/8b53b6bcdf109b973224e59b53ac36cb-p_e.jpg
"2334 Wyandotte Dr, Oakville, ON L6L 2T6",L6L2T6,Oakville,ON,1199000.0,3.0,2.0,,,5901.5,sqft,https://zillow.com/homedetails/2334-Wyandotte-Dr-Oakville-ON-L6L-2T6/447597309_zpid/,43.407104,-79.72373,SINGLE_FAMILY,https://photos.zillowstatic.com/fp/f94ad2c9a6ebf7b8e711188d0c64aa12-p_e.jpg
"284 Douglas Ave, Oakville, ON L6J 3S4",L6J3S4,Oakville,ON,4495000.0,4.0,5.0,,,0.15,sqft,https://zillow.com/homedetails/284-Douglas-Ave-Oakville-ON-L6J-3S4/448709283_zpid/,43.453995,-79.670456,SINGLE_FAMILY,https://photos.zillowstatic.com/fp/42524c30f2ffbe04479d0100bc983be1-p_e.jpg
"3045 George Savage Ave #3, Oakville, ON L6M 0Y8",L6M0Y8,Oakville,ON,1299000.0,3.0,3.0,2378.0,546.26,1103.544,sqft,https://zillow.com/homedetails/3045-George-Savage-Ave-3-Oakville-ON-L6M-0Y8/366559658_zpid/,43.471,-79.74085,TOWNHOUSE,https://photos.zillowstatic.com/fp/2bb78204eb21df0b3f667ab9366a2976-p_e.jpg
"539 Jeanette Dr, Oakville, ON L6K 1M9",L6K1M9,Oakville,ON,3599000.0,5.0,5.0,,,9685.0,sqft,https://zillow.com/homedetails/539-Jeanette-Dr-Oakville-ON-L6K-1M9/2079294606_zpid/,43.43034,-79.69225,SINGLE_FAMILY,https://photos.zillowstatic.com/fp/9dce38d47b51f7324efa4e2d6d3fae32-p_e.jpg
"2455 Bon Echo Dr, Oakville, ON L6H 7R1",L6H7R1,Oakville,ON,2898000.0,4.0,4.0,,,5650.7843,sqft,https://zillow.com/homedetails/2455-Bon-Echo-Dr-Oakville-ON-L6H-7R1/2068928913_zpid/,43.500328,-79.70004,SINGLE_FAMILY,https://photos.zillowstatic.com/fp/c156515dc1ed1fe2c183bd5b500bd0d3-p_e.jpg
"47 Nelson St, Oakville, ON L6L 3H5",L6L3H5,Oakville,ON,3499000.0,3.0,3.0,,,10223.4,sqft,https://zillow.com/homedetails/47-Nelson-St-Oakville-ON-L6L-3H5/347294115_zpid/,43.39639,-79.7065,SINGLE_FAMILY,https://photos.zillowstatic.com/fp/4aa1924a73428116b304229206e567cc-p_e.jpg
"2329 Marine Dr, Oakville, ON L6L 1C2",L6L1C2,Oakville,ON,1850000.0,3.0,3.0,,,2146.8633,sqft,https://zillow.com/homedetails/2329-Marine-Dr-Oakville-ON-L6L-1C2/2063737187_zpid/,43.39699,-79.706985,TOWNHOUSE,https://photos.zillowstatic.com/fp/b88dbdd5e5417c7a744da0373c2e95aa-p_e.jpg
"71 Nelson St, Oakville, ON L6L 3H7",L6L3H7,Oakville,ON,1350000.0,2.0,3.0,,,1620.8752,sqft,https://zillow.com/homedetails/71-Nelson-St-Oakville-ON-L6L-3H7/2063754950_zpid/,43.396877,-79.70735,TOWNHOUSE,https://photos.zillowstatic.com/fp/153d47e66da04bc05a36234812463610-p_e.jpg
"440 Sunset Dr, Oakville, ON L6L 3N4",L6L3N4,Oakville,ON,1296000.0,3.0,2.0,1186.0,1092.75,6000.0,sqft,https://zillow.com/homedetails/440-Sunset-Dr-Oakville-ON-L6L-3N4/440188110_zpid/,43.407845,-79.717964,SINGLE_FAMILY,https://photos.zillowstatic.com/fp/4c68ccd085c566676391bd7ce0387e77-p_e.jpg
"1320 Hampton St S #25, Oakville, ON L6H 2S6",L6H2S6,Oakville,ON,875000.0,4.0,3.0,,,,,https://zillow.com/homedetails/1320-Hampton-St-S-25-Oakville-ON-L6H-2S6/2068565168_zpid/,43.47575,-79.68785,TOWNHOUSE,https://photos.zillowstatic.com/fp/a8c7c433ab7e629b39267f848eb754ab-p_e.jpg
"283 Jennings Cres, Oakville, ON L6L 1W3",L6L1W3,Oakville,ON,3480000.0,5.0,5.0,3269.0,1064.55,9147.6,sqft,https://zillow.com/homedetails/283-Jennings-Cres-Oakville-ON-L6L-1W3/448959338_zpid/,43.40059,-79.71572,SINGLE_FAMILY,https://photos.zillowstatic.com/fp/0c836bcdde0cc7e3568491004cb90616-p_e.jpg
"312 Slade Cres, Oakville, ON L6K 3R4",L6K3R4,Oakville,ON,2080000.0,6.0,5.0,,,6553.1,sqft,https://zillow.com/homedetails/312-Slade-Cres-Oakville-ON-L6K-3R4/2071857692_zpid/,43.43759,-79.6874,SINGLE_FAMILY,https://photos.zillowstatic.com/fp/b9fc4db0bf7391cb75b3f7be8d7e05e8-p_e.jpg
"299 Hickory Cir, Oakville, ON L6H 4V3",L6H4V3,Oakville,ON,1739900.0,5.0,4.0,,,5818.7865,sqft,https://zillow.com/homedetails/299-Hickory-Cir-Oakville-ON-L6H-4V3/448139690_zpid/,43.480103,-79.70822,SINGLE_FAMILY,https://photos.zillowstatic.com/fp/a6a4761b5a279ce1e30f7ae760a6be8c-p_e.jpg
"247 Trafalgar Rd, Oakville, ON L6J 3H1",L6J3H1,Oakville,ON,1998000.0,2.0,2.0,,,7943.0,sqft,https://zillow.com/homedetails/247-Trafalgar-Rd-Oakville-ON-L6J-3H1/447924922_zpid/,43.450794,-79.67183,SINGLE_FAMILY,https://photos.zillowstatic.com/fp/e46290e808cf6a7570d03000a895f6c8-p_e.jpg
"2375 Bronte Rd #311, Oakville, ON L6M 1P5",L6M1P5,Oakville,ON,769900.0,2.0,2.0,952.0,808.72,,,https://zillow.com/homedetails/2375-Bronte-Rd-311-Oakville-ON-L6M-1P5/2054547185_zpid/,43.431255,-79.772026,TOWNHOUSE,https://photos.zillowstatic.com/fp/9a8d22959af99a2016bf95a011503d98-p_e.jpg
"1385 Arrowhead Rd, Oakville, ON L6H 7P7",L6H7P7,Oakville,ON,2799000.0,5.0,5.0,,,0.2779731818181818,acres,https://zillow.com/homedetails/1385-Arrowhead-Rd-Oakville-ON-L6H-7P7/2063855327_zpid/,43.49731,-79.69964,SINGLE_FAMILY,https://photos.zillowstatic.com/fp/f676f14b117154a3ccee1a3c4a97bebd-p_e.jpg
"244 Ellen Davidson Dr, Oakville, ON L6M 0V2",L6M0V2,Oakville,ON,1128800.0,4.0,4.0,1800.0,627.11,1204.895,sqft,https://zillow.com/homedetails/244-Ellen-Davidson-Dr-Oakville-ON-L6M-0V2/2081814024_zpid/,43.47449,-79.737206,TOWNHOUSE,https://photos.zillowstatic.com/fp/520b50a482a6d2583c0d0a09e04222fa-p_e.jpg
"26 Miller Rd, Oakville, ON L6H 1J6",L6H1J6,Oakville,ON,1349800.0,4.0,3.0,,,7039.0,sqft,https://zillow.com/homedetails/26-Miller-Rd-Oakville-ON-L6H-1J6/443912773_zpid/,43.462463,-79.70777,SINGLE_FAMILY,https://photos.zillowstatic.com/fp/174b1d916d15e2a77487478f1ae3946b-p_e.jpg
"2280 Baronwood Dr #1, Oakville, ON L6M 4Z7",L6M4Z7,Oakville,ON,1049900.0,3.0,4.0,1902.0,552.0,3422.92,sqft,https://zillow.com/homedetails/2280-Baronwood-Dr-1-Oakville-ON-L6M-4Z7/449354697_zpid/,43.43068,-79.76698,TOWNHOUSE,https://photos.zillowstatic.com/fp/f85bb8f4dad8277e38c504bb46565e59-p_e.jpg
"241 Sunrise Cres, Oakville, ON L6L 3L4",L6L3L4,Oakville,ON,1899000.0,4.0,2.0,2004.0,947.6,7380.0,sqft,https://zillow.com/homedetails/241-Sunrise-Cres-Oakville-ON-L6L-3L4/2055872948_zpid/,43.403427,-79.71072,SINGLE_FAMILY,https://photos.zillowstatic.com/fp/0de99a0ebcb77df3789ae0987b7e200f-p_e.jpg
"2439 Montagne Ave, Oakville, ON L6M 0J5",L6M0J5,Oakville,ON,1199900.0,3.0,3.0,1845.0,650.35,2269.9352,sqft,https://zillow.com/homedetails/2439-Montagne-Ave-Oakville-ON-L6M-0J5/449356522_zpid/,43.43353,-79.76838,TOWNHOUSE,https://photos.zillowstatic.com/fp/750b3f6a91444c97d3e964c544b1fec5-p_e.jpg
"2872 Garnethill Way, Oakville, ON L6M 5E8",L6M5E8,Oakville,ON,1029000.0,3.0,3.0,1550.0,663.87,1821.2562,sqft,https://zillow.com/homedetails/2872-Garnethill-Way-Oakville-ON-L6M-5E8/2077860834_zpid/,43.42799,-79.764,TOWNHOUSE,https://photos.zillowstatic.com/fp/5ca224771f49fb53f223b42bc677133d-p_e.jpg
"212 Watson Ave, Oakville, ON L6J 3T4",L6J3T4,Oakville,ON,4600000.0,5.0,5.0,,,7200.0,sqft,https://zillow.com/homedetails/212-Watson-Ave-Oakville-ON-L6J-3T4/448660674_zpid/,43.45068,-79.66377,SINGLE_FAMILY,https://photos.zillowstatic.com/fp/1d6ebdab32ae4cd660bd35983c3a7f34-p_e.jpg
"1203 Willowbrook Dr, Oakville, ON L6L 2J9",L6L2J9,Oakville,ON,1739000.0,4.0,2.0,,,0.32,sqft,https://zillow.com/homedetails/1203-Willowbrook-Dr-Oakville-ON-L6L-2J9/2062798544_zpid/,43.420715,-79.697945,SINGLE_FAMILY,https://photos.zillowstatic.com/fp/34a4349bb1f39b93c8e3abac81015f4d-p_e.jpg
"1259 Glenashton Dr, Oakville, ON L6H 5M3",L6H5M3,Oakville,ON,2280000.0,5.0,4.0,,,6697.9227,sqft,https://zillow.com/homedetails/1259-Glenashton-Dr-Oakville-ON-L6H-5M3/350498250_zpid/,43.49132,-79.69365,SINGLE_FAMILY,https://photos.zillowstatic.com/fp/42548490325336d81b4aab2683f38576-p_e.jpg
"1400 Cobbler Ln, Oakville, ON L6M 3C1",L6M3C1,Oakville,ON,1199000.0,3.0,2.0,,,7312.5832,sqft,https://zillow.com/homedetails/1400-Cobbler-Ln-Oakville-ON-L6M-3C1/2055264158_zpid/,43.42981,-79.74391,SINGLE_FAMILY,https://photos.zillowstatic.com/fp/e26d01876912426824fe700b103b23f5-p_e.jpg
"2557 Kate Cmn, Oakville, ON L6L 0E9",L6L0E9,Oakville,ON,3599000.0,4.0,5.0,,,5729.9618,sqft,https://zillow.com/homedetails/2557-Kate-Cmn-Oakville-ON-L6L-0E9/2071834307_zpid/,43.39508,-79.7202,SINGLE_FAMILY,https://photos.zillowstatic.com/fp/2f066eb2f8d1b8543b37b443f543f030-p_e.jpg
"70 Navy St, Oakville, ON L6J 2Y9",L6J2Y9,Oakville,ON,6285000.0,3.0,4.0,,,6302.9289,sqft,https://zillow.com/homedetails/70-Navy-St-Oakville-ON-L6J-2Y9/443954146_zpid/,43.443253,-79.66891,SINGLE_FAMILY,https://photos.zillowstatic.com/fp/e6cc89aecf356d751e00204dba045186-p_e.jpg
"1516 Pembroke Dr, Oakville, ON L6H 1V9",L6H1V9,Oakville,ON,3889000.0,5.0,5.0,,,9900.0,sqft,https://zillow.com/homedetails/1516-Pembroke-Dr-Oakville-ON-L6H-1V9/444386923_zpid/,43.462788,-79.71315,SINGLE_FAMILY,https://photos.zillowstatic.com/fp/fee0883332deb1d05607f7b2a076d148-p_e.jpg
"1055 Lindsay Dr, Oakville, ON L6M 3B6",L6M3B6,Oakville,ON,1099900.0,3.0,3.0,2120.0,518.82,2383.7913,sqft,https://zillow.com/homedetails/1055-Lindsay-Dr-Oakville-ON-L6M-3B6/2063934992_zpid/,43.44555,-79.70649,TOWNHOUSE,https://photos.zillowstatic.com/fp/8cbc9aca1909087a07dcf64262d83576-p_e.jpg
"1278 Cottonwood Cres, Oakville, ON L6M 2W7",L6M2W7,Oakville,ON,1359000.0,4.0,4.0,,,3043.9404,sqft,https://zillow.com/homedetails/1278-Cottonwood-Cres-Oakville-ON-L6M-2W7/448881704_zpid/,43.433556,-79.73025,TOWNHOUSE,https://photos.zillowstatic.com/fp/2bf2f0570f7268ddf1fac94d30aacdf2-p_e.jpg
"3113 Watercliffe Ct, Oakville, ON L6M 0K7",L6M0K7,Oakville,ON,1875000.0,3.0,3.0,,,3262.44,sqft,https://zillow.com/homedetails/3113-Watercliffe-Ct-Oakville-ON-L6M-0K7/2063780659_zpid/,43.426704,-79.7748,TOWNHOUSE,https://photos.zillowstatic.com/fp/0c4ff76e232dd7d3b6b5f2eaf9607183-p_e.jpg
"2055 Lakeshore Rd E, Oakville, ON L6J 1M4",L6J1M4,Oakville,ON,6250000.0,4.0,3.0,,,1.0053,acres,https://zillow.com/homedetails/2055-Lakeshore-Rd-E-Oakville-ON-L6J-1M4/348506379_zpid/,43.471066,-79.64366,SINGLE_FAMILY,https://photos.zillowstatic.com/fp/61f5a675d5acb8cbf3a0372d03c0d9b5-p_e.jpg
"2443 Millstone Dr, Oakville, ON L6M 0H6",L6M0H6,Oakville,ON,1599000.0,4.0,3.0,,,2995.2,sqft,https://zillow.com/homedetails/2443-Millstone-Dr-Oakville-ON-L6M-0H6/2082470923_zpid/,43.43969,-79.77126,SINGLE_FAMILY,https://photos.zillowstatic.com/fp/d0eb00da5437ce8188d1a996c4bdcfc7-p_e.jpg
"2196 Grand Ravine Dr, Oakville, ON L6H 6B1",L6H6B1,Oakville,ON,1975000.0,4.0,3.0,3147.0,627.58,5408.6711,sqft,https://zillow.com/homedetails/2196-Grand-Ravine-Dr-Oakville-ON-L6H-6B1/448296572_zpid/,43.472034,-79.71694,SINGLE_FAMILY,https://photos.zillowstatic.com/fp/d3393a6a4b241e7663653ef01f627109-p_e.jpg
"548 Swann Dr, Oakville, ON L6L 3X1",L6L3X1,Oakville,ON,1450000.0,3.0,1.0,,,7652.6008,sqft,https://zillow.com/homedetails/548-Swann-Dr-Oakville-ON-L6L-3X1/2063911915_zpid/,43.415825,-79.715515,SINGLE_FAMILY,https://photos.zillowstatic.com/fp/d94433ef6e6d63b905e250b35e3ec8ee-p_e.jpg
"1334 Devon Rd, Oakville, ON L6J 2M1",L6J2M1,Oakville,ON,2990000.0,5.0,4.0,,,0.2835797245179063,acres,https://zillow.com/homedetails/1334-Devon-Rd-Oakville-ON-L6J-2M1/444695037_zpid/,43.469814,-79.65822,SINGLE_FAMILY,https://photos.zillowstatic.com/fp/18eb08d40fcc9efdddfbd89e9efc4e7d-p_e.jpg
"2098 Constance Dr, Oakville, ON L6J 5X6",L6J5X6,Oakville,ON,1990000.0,4.0,3.0,,,0.144,sqft,https://zillow.com/homedetails/2098-Constance-Dr-Oakville-ON-L6J-5X6/448816504_zpid/,43.481033,-79.65342,SINGLE_FAMILY,https://photos.zillowstatic.com/fp/eda769e13355bd25c62bdd6eb55d9427-p_e.jpg
"2077 Frontier Dr, Oakville, ON L6M 3V5",L6M3V5,Oakville,ON,1328888.0,3.0,3.0,,,3516.0209,sqft,https://zillow.com/homedetails/2077-Frontier-Dr-Oakville-ON-L6M-3V5/443189126_zpid/,43.445683,-79.73606,SINGLE_FAMILY,https://photos.zillowstatic.com/fp/b25f64c7112ffcf1a0d133da856cf9dc-p_e.jpg
"63 Carnegie Dr, Oakville, ON L6H 0V9",L6H0V9,Oakville,ON,2086000.0,4.0,4.0,,,3433.0872,sqft,https://zillow.com/homedetails/63-Carnegie-Dr-Oakville-ON-L6H-0V9/448707339_zpid/,43.487545,-79.736465,SINGLE_FAMILY,https://photos.zillowstatic.com/fp/551e82927e30403168acc16bfda1cd13-p_e.jpg
"2595 Blackcombe Cres, Oakville, ON L6H 6L5",L6H6L5,Oakville,ON,1248800.0,4.0,3.0,,,4259.4124,sqft,https://zillow.com/homedetails/2595-Blackcombe-Cres-Oakville-ON-L6H-6L5/449039249_zpid/,43.472687,-79.73536,SINGLE_FAMILY,https://photos.zillowstatic.com/fp/f26d901aae7a34092bdf214a9f308211-p_e.jpg
"1200 Bronte Rd, Oakville, ON L6M 4G4",L6M4G4,Oakville,ON,3099000.0,5.0,5.0,,,0.84,sqft,https://zillow.com/homedetails/1200-Bronte-Rd-Oakville-ON-L6M-4G4/440309815_zpid/,43.414433,-79.74733,SINGLE_FAMILY,https://photos.zillowstatic.com/fp/a0274b077469b8e645c8de327dbc395c-p_e.jpg
"1321 Monks Pass, Oakville, ON L6M 1K6",L6M1K6,Oakville,ON,2388000.0,5.0,4.0,,,6210.4749,sqft,https://zillow.com/homedetails/1321-Monks-Pass-Oakville-ON-L6M-1K6/2057096357_zpid/,43.4458,-79.722984,SINGLE_FAMILY,https://photos.zillowstatic.com/fp/30e3a39cc5a1938eabea981a5b31333f-p_e.jpg
"396 River Side Dr, Oakville, ON L6K 3N7",L6K3N7,Oakville,ON,2699000.0,6.0,6.0,2489.0,1084.37,9559.8,sqft,https://zillow.com/homedetails/396-River-Side-Dr-Oakville-ON-L6K-3N7/2084584880_zpid/,43.451126,-79.68099,SINGLE_FAMILY,https://photos.zillowstatic.com/fp/41c01564c05b7af764b6cebb1d937ab2-p_e.jpg
"430 Reynolds St, Oakville, ON L6J 3M4",L6J3M4,Oakville,ON,2798000.0,5.0,5.0,,,5000.0,sqft,https://zillow.com/homedetails/430-Reynolds-St-Oakville-ON-L6J-3M4/2057875621_zpid/,43.454994,-79.67815,SINGLE_FAMILY,https://photos.zillowstatic.com/fp/d64e75563111c54451a041ab21175ce6-p_e.jpg
"2450 Old Bronte Rd #241, Oakville, ON L6M 5P6",L6M5P6,Oakville,ON,470000.0,1.0,1.0,529.0,888.47,,,https://zillow.com/homedetails/2450-Old-Bronte-Rd-241-Oakville-ON-L6M-5P6/448832540_zpid/,43.433647,-79.7745,CONDO,https://photos.zillowstatic.com/fp/368e504a9be8da7ac9fb35fd487dde77-p_e.jpg
"3066 8th Line, Oakville, ON L6H 0S6",L6H0S6,Oakville,ON,1209800.0,4.0,3.0,,,2227.374,sqft,https://zillow.com/homedetails/3066-8th-Line-Oakville-ON-L6H-0S6/2071887319_zpid/,43.495373,-79.715775,TOWNHOUSE,https://photos.zillowstatic.com/fp/d1a6ca1364a6b468d40367a394f39495-p_e.jpg
"3183 Daniel Way, Oakville, ON L6H 0V7",L6H0V7,Oakville,ON,2588800.0,5.0,6.0,,,3863.902,sqft,https://zillow.com/homedetails/3183-Daniel-Way-Oakville-ON-L6H-0V7/446949956_zpid/,43.485027,-79.73437,SINGLE_FAMILY,https://photos.zillowstatic.com/fp/487e9cddf6a90418feebdcdbe2db0ef8-p_e.jpg
"3106 Cardross Ct, Oakville, ON L6M 0A1",L6M0A1,Oakville,ON,1799900.0,4.0,4.0,,,2722.0135,sqft,https://zillow.com/homedetails/3106-Cardross-Ct-Oakville-ON-L6M-0A1/440334127_zpid/,43.430286,-79.77718,SINGLE_FAMILY,https://photos.zillowstatic.com/fp/4e980fd77ca275af166ee7ce3af7a2ba-p_e.jpg
"1489 Jasmine Cres, Oakville, ON L6H 3H2",L6H3H2,Oakville,ON,2049000.0,5.0,5.0,,,7350.0,sqft,https://zillow.com/homedetails/1489-Jasmine-Cres-Oakville-ON-L6H-3H2/446858573_zpid/,43.479492,-79.69449,SINGLE_FAMILY,https://photos.zillowstatic.com/fp/88f5d38aa7cd1a97555afea714e7e9bc-p_e.jpg
"2076 Pelee Blvd, Oakville, ON L6H 5N8",L6H5N8,Oakville,ON,1498500.0,3.0,3.0,,,6122.4758,sqft,https://zillow.com/homedetails/2076-Pelee-Blvd-Oakville-ON-L6H-5N8/448379462_zpid/,43.47097,-79.71097,SINGLE_FAMILY,https://photos.zillowstatic.com/fp/7037bac2f463860662eaff127d490549-p_e.jpg
"1554 Venetia Dr, Oakville, ON L6L 1K7",L6L1K7,Oakville,ON,1999000.0,4.0,3.0,1399.0,1428.88,,,https://zillow.com/homedetails/1554-Venetia-Dr-Oakville-ON-L6L-1K7/447241184_zpid/,43.406116,-79.69675,SINGLE_FAMILY,https://photos.zillowstatic.com/fp/ff8f292f48d84fd5f7ea9ac8f7ec6824-p_e.jpg
"2199 Lillykin St #17, Oakville, ON L6H 0X6",L6H0X6,Oakville,ON,724900.0,2.0,3.0,,,,,https://zillow.com/homedetails/2199-Lillykin-St-17-Oakville-ON-L6H-0X6/443800789_zpid/,43.47945,-79.70972,TOWNHOUSE,https://photos.zillowstatic.com/fp/f3bc8e05851b0de48489830795a07cea-p_e.jpg
"55 Speers Rd #1405, Oakville, ON L6K 0H9",L6K0H9,Oakville,ON,679900.0,2.0,1.0,790.0,860.63,,,https://zillow.com/homedetails/55-Speers-Rd-1405-Oakville-ON-L6K-0H9/344032288_zpid/,43.447487,-79.68683,CONDO,https://photos.zillowstatic.com/fp/6257a6cc0821115dc43face68711a4c2-p_e.jpg
"102 Bronte Rd #315, Oakville, ON L6L 6J5",L6L6J5,Oakville,ON,849900.0,2.0,2.0,1284.0,661.92,,,https://zillow.com/homedetails/102-Bronte-Rd-315-Oakville-ON-L6L-6J5/2063763708_zpid/,43.393986,-79.71161,CONDO,https://photos.zillowstatic.com/fp/0b6917bcd40193dd3c6f21344b4f3180-p_e.jpg
